{"type":"FeatureCollection","totalFeatures":1835,"features":[{"type":"Feature","id":"MGISGEONAMX2.1","geometry":{"type":"Point","coordinates":[-70.86436054,42.84482233]},"geometry_name":"the_geom","properties":{"PLACES_":3,"PLACES_ID":1,"X":251961.859,"Y":955105.25,"OFFSETX":0,"OFFSETY":0,"HEIGHT":100,"SYMBOL":1,"LEVEL_":1,"TEXT":"S A L I S B U R Y","NAME":"SALISBURY","FEATURE":"PPL","COUNTY":25009,"COORD":"","DATE_":1978,"ELEVATION":25,"SOURCE":"USGS","TILE_NAME":"146"}},{"type":"Feature","id":"MGISGEONAMX2.2","geometry":{"type":"Point","coordinates":[-70.81461765,42.84174158]},"geometry_name":"the_geom","properties":{"PLACES_":2,"PLACES_ID":2,"X":256030.875,"Y":954794.5,"OFFSETX":0,"OFFSETY":0,"HEIGHT":76.2,"SYMBOL":1,"LEVEL_":1,"TEXT":"SALISBURY BEACH","NAME":"SALISBURY BEACH","FEATURE":"PLACE","COUNTY":25009,"COORD":"425220N0704900W","DATE_":1978,"ELEVATION":0,"SOURCE":"USGS","TILE_NAME":"146"}},{"type":"Feature","id":"MGISGEONAMX2.3","geometry":{"type":"Point","coordinates":[-70.83386988,42.83865876]},"geometry_name":"the_geom","properties":{"PLACES_":1,"PLACES_ID":3,"X":254459.688,"Y":954439.563,"OFFSETX":0,"OFFSETY":0,"HEIGHT":76.2,"SYMBOL":1,"LEVEL_":1,"TEXT":"BROWNS POINT","NAME":"BROWNS POINT","FEATURE":"PPL","COUNTY":25009,"COORD":"425020N0704950W","DATE_":1978,"ELEVATION":10,"SOURCE":"USGS","TILE_NAME":"146"}},{"type":"Feature","id":"MGISGEONAMX2.4","geometry":{"type":"Point","coordinates":[-70.8672218,42.81616844]},"geometry_name":"the_geom","properties":{"PLACES_":4,"PLACES_ID":4,"X":251751.578,"Y":951920.375,"OFFSETX":0,"OFFSETY":0,"HEIGHT":60,"SYMBOL":1,"LEVEL_":1,"TEXT":"RINGS\\ISLAND","NAME":"RINGS ISLAND","FEATURE":"PPL","COUNTY":25009,"COORD":"","DATE_":1978,"ELEVATION":10,"SOURCE":"USGS","TILE_NAME":"146"}},{"type":"Feature","id":"MGISGEONAMX2.5","geometry":{"type":"Point","coordinates":[-70.80810285,42.81362222]},"geometry_name":"the_geom","properties":{"PLACES_":5,"PLACES_ID":5,"X":256588.797,"Y":951675.063,"OFFSETX":0,"OFFSETY":0,"HEIGHT":76.2,"SYMBOL":1,"LEVEL_":1,"TEXT":"PLUM ISLAND","NAME":"PLUM ISLAND","FEATURE":"PLACE","COUNTY":25009,"COORD":"424907N0704905W","DATE_":1978,"ELEVATION":20,"SOURCE":"USGS","TILE_NAME":"146"}},{"type":"Feature","id":"MGISGEONAMX2.6","geometry":{"type":"Point","coordinates":[-70.85941895,42.80790913]},"geometry_name":"the_geom","properties":{"PLACES_":7,"PLACES_ID":6,"X":252396.609,"Y":951007.625,"OFFSETX":0,"OFFSETY":0,"HEIGHT":65,"SYMBOL":1,"LEVEL_":1,"TEXT":"JOPPA","NAME":"JOPPA","FEATURE":"PPL-SUBDVSN","COUNTY":25009,"COORD":"424820N0705130W","DATE_":1978,"ELEVATION":20,"SOURCE":"USGS","TILE_NAME":"146"}},{"type":"Feature","id":"MGISGEONAMX2.7","geometry":{"type":"Point","coordinates":[-70.87128533,42.80631893]},"geometry_name":"the_geom","properties":{"PLACES_":11,"PLACES_ID":7,"X":251427.313,"Y":950823.75,"OFFSETX":0,"OFFSETY":0,"HEIGHT":85,"SYMBOL":1,"LEVEL_":1,"TEXT":"N E W B U R Y P O R T","NAME":"NEWBURYPORT","FEATURE":"PLACE","COUNTY":0,"COORD":"","DATE_":1999,"ELEVATION":0,"SOURCE":"DEP","TILE_NAME":"146"}},{"type":"Feature","id":"MGISGEONAMX2.8","geometry":{"type":"Point","coordinates":[-70.83028773,42.79806171]},"geometry_name":"the_geom","properties":{"PLACES_":8,"PLACES_ID":8,"X":254787.953,"Y":949932,"OFFSETX":0,"OFFSETY":0,"HEIGHT":65,"SYMBOL":1,"LEVEL_":1,"TEXT":"PLUMBUSH","NAME":"PLUMBUSH","FEATURE":"PPL","COUNTY":25009,"COORD":"424750N0704945W","DATE_":1978,"ELEVATION":5,"SOURCE":"USGS","TILE_NAME":"146"}},{"type":"Feature","id":"MGISGEONAMX2.9","geometry":{"type":"Point","coordinates":[-70.85805996,42.79477182]},"geometry_name":"the_geom","properties":{"PLACES_":6,"PLACES_ID":9,"X":252518.75,"Y":949549.063,"OFFSETX":0,"OFFSETY":0,"HEIGHT":65,"SYMBOL":1,"LEVEL_":1,"TEXT":"UPPER GREEN","NAME":"UPPER GREEN","FEATURE":"PPL","COUNTY":25009,"COORD":"424735N0705140W","DATE_":1978,"ELEVATION":41,"SOURCE":"USGS","TILE_NAME":"146"}},{"type":"Feature","id":"MGISGEONAMX2.10","geometry":{"type":"Point","coordinates":[-70.82942212,42.78020698]},"geometry_name":"the_geom","properties":{"PLACES_":9,"PLACES_ID":10,"X":254874.359,"Y":947949.125,"OFFSETX":0,"OFFSETY":0,"HEIGHT":65,"SYMBOL":1,"LEVEL_":1,"TEXT":"PINE ISLAND","NAME":"PINE ISLAND","FEATURE":"PPL","COUNTY":25009,"COORD":"421600N0710012W","DATE_":1978,"ELEVATION":20,"SOURCE":"USGS","TILE_NAME":"146"}},{"type":"Feature","id":"MGISGEONAMX2.11","geometry":{"type":"Point","coordinates":[-70.84491203,42.7679483]},"geometry_name":"the_geom","properties":{"PLACES_":10,"PLACES_ID":11,"X":253617.281,"Y":946577.5,"OFFSETX":0,"OFFSETY":0,"HEIGHT":65,"SYMBOL":1,"LEVEL_":1,"TEXT":"NEWBURY OLD TOWN","NAME":"NEWBURY OLD TOWN","FEATURE":"PPL","COUNTY":25009,"COORD":"424600N0705045W","DATE_":1978,"ELEVATION":37,"SOURCE":"USGS","TILE_NAME":"146"}},{"type":"Feature","id":"MGISGEONAMX2.12","geometry":{"type":"Point","coordinates":[-70.88611031,42.86568789]},"geometry_name":"the_geom","properties":{"PLACES_":1,"PLACES_ID":1,"X":250167.219,"Y":957410.188,"OFFSETX":0,"OFFSETY":0,"HEIGHT":65,"SYMBOL":1,"LEVEL_":1,"TEXT":"SALISBURY PLAINS","NAME":"SALISBURY PLAINS","FEATURE":"PPL","COUNTY":25009,"COORD":"425210N0705300W","DATE_":1978,"ELEVATION":90,"SOURCE":"USGS","TILE_NAME":"134"}},{"type":"Feature","id":"MGISGEONAMX2.13","geometry":{"type":"Point","coordinates":[-70.93478164,42.8597715]},"geometry_name":"the_geom","properties":{"PLACES_":2,"PLACES_ID":2,"X":246194.203,"Y":956725.438,"OFFSETX":0,"OFFSETY":0,"HEIGHT":85,"SYMBOL":1,"LEVEL_":1,"TEXT":"A M E S B U R Y","NAME":"AMESBURY","FEATURE":"PPL","COUNTY":25009,"COORD":"","DATE_":1978,"ELEVATION":50,"SOURCE":"USGS","TILE_NAME":"134"}},{"type":"Feature","id":"MGISGEONAMX2.14","geometry":{"type":"Point","coordinates":[-70.91095545,42.84116175]},"geometry_name":"the_geom","properties":{"PLACES_":3,"PLACES_ID":3,"X":248155.719,"Y":954671.25,"OFFSETX":0,"OFFSETY":0,"HEIGHT":60,"SYMBOL":1,"LEVEL_":1,"TEXT":"SALISBURY\\POINT","NAME":"SALISBURY POINT","FEATURE":"PPL","COUNTY":25009,"COORD":"","DATE_":1978,"ELEVATION":50,"SOURCE":"USGS","TILE_NAME":"134"}},{"type":"Feature","id":"MGISGEONAMX2.15","geometry":{"type":"Point","coordinates":[-70.99528579,42.82542752]},"geometry_name":"the_geom","properties":{"PLACES_":9,"PLACES_ID":4,"X":241271.953,"Y":952879.125,"OFFSETX":0,"OFFSETY":0,"HEIGHT":65,"SYMBOL":1,"LEVEL_":1,"TEXT":"MERRIMACPORT","NAME":"MERRIMACPORT","FEATURE":"PPL","COUNTY":25009,"COORD":"","DATE_":1978,"ELEVATION":100,"SOURCE":"USGS","TILE_NAME":"134"}},{"type":"Feature","id":"MGISGEONAMX2.16","geometry":{"type":"Point","coordinates":[-70.93394264,42.81957706]},"geometry_name":"the_geom","properties":{"PLACES_":5,"PLACES_ID":5,"X":246292.406,"Y":952260.688,"OFFSETX":0,"OFFSETY":0,"HEIGHT":65,"SYMBOL":1,"LEVEL_":1,"TEXT":"CURZON MILL","NAME":"CURZON MILL","FEATURE":"PPL","COUNTY":25009,"COORD":"424915N0705615W","DATE_":1978,"ELEVATION":20,"SOURCE":"USGS","TILE_NAME":"134"}},{"type":"Feature","id":"MGISGEONAMX2.17","geometry":{"type":"Point","coordinates":[-70.88880042,42.81419869]},"geometry_name":"the_geom","properties":{"PLACES_":8,"PLACES_ID":6,"X":249988.375,"Y":951688.688,"OFFSETX":0,"OFFSETY":0,"HEIGHT":85,"SYMBOL":1,"LEVEL_":1,"TEXT":"N E W B U R Y P O R T","NAME":"NEWBURYPORT","FEATURE":"PPL","COUNTY":25009,"COORD":"","DATE_":1978,"ELEVATION":37,"SOURCE":"USGS","TILE_NAME":"134"}},{"type":"Feature","id":"MGISGEONAMX2.18","geometry":{"type":"Point","coordinates":[-70.98581379,42.79992215]},"geometry_name":"the_geom","properties":{"PLACES_":4,"PLACES_ID":7,"X":242063.578,"Y":950050.375,"OFFSETX":0,"OFFSETY":0,"HEIGHT":85,"SYMBOL":1,"LEVEL_":1,"TEXT":"W E S T     N E W B U R Y","NAME":"WEST NEWBURY","FEATURE":"PPL","COUNTY":25009,"COORD":"","DATE_":1978,"ELEVATION":0,"SOURCE":"USGS","TILE_NAME":"134"}},{"type":"Feature","id":"MGISGEONAMX2.19","geometry":{"type":"Point","coordinates":[-70.89268092,42.77505025]},"geometry_name":"the_geom","properties":{"PLACES_":7,"PLACES_ID":8,"X":249701.969,"Y":947337.5,"OFFSETX":0,"OFFSETY":0,"HEIGHT":60,"SYMBOL":1,"LEVEL_":1,"TEXT":"KNIGHTS\\CROSSING","NAME":"KNIGHTS CROSSING","FEATURE":"PPL","COUNTY":25009,"COORD":"","DATE_":1978,"ELEVATION":10,"SOURCE":"USGS","TILE_NAME":"134"}},{"type":"Feature","id":"MGISGEONAMX2.20","geometry":{"type":"Point","coordinates":[-70.95521272,42.75970083]},"geometry_name":"the_geom","properties":{"PLACES_":6,"PLACES_ID":9,"X":244595.438,"Y":945597.813,"OFFSETX":0,"OFFSETY":0,"HEIGHT":90,"SYMBOL":1,"LEVEL_":1,"TEXT":"B Y F I E L D","NAME":"BYFIELD","FEATURE":"PPL","COUNTY":25009,"COORD":"","DATE_":1978,"ELEVATION":66,"SOURCE":"USGS","TILE_NAME":"134"}},{"type":"Feature","id":"MGISGEONAMX2.21","geometry":{"type":"Point","coordinates":[-71.01010465,42.83213604]},"geometry_name":"the_geom","properties":{"PLACES_":2,"PLACES_ID":1,"X":240055.906,"Y":953617.313,"OFFSETX":0,"OFFSETY":0,"HEIGHT":90,"SYMBOL":1,"LEVEL_":1,"TEXT":"M E R R I M A C","NAME":"MERRIMAC","FEATURE":"PPL","COUNTY":25009,"COORD":"","DATE_":1892,"ELEVATION":107,"SOURCE":"USGS","TILE_NAME":"122"}},{"type":"Feature","id":"MGISGEONAMX2.22","geometry":{"type":"Point","coordinates":[-71.00716537,42.80776382]},"geometry_name":"the_geom","properties":{"PLACES_":3,"PLACES_ID":2,"X":240311.875,"Y":950911.188,"OFFSETX":0,"OFFSETY":0,"HEIGHT":60,"SYMBOL":1,"LEVEL_":1,"TEXT":"ROCKS VILLAGE","NAME":"ROCKS VILLAGE","FEATURE":"PPL","COUNTY":25009,"COORD":"424835N0710010W","DATE_":1925,"ELEVATION":40,"SOURCE":"USGS","TILE_NAME":"122"}},{"type":"Feature","id":"MGISGEONAMX2.23","geometry":{"type":"Point","coordinates":[-71.11628117,42.80425358]},"geometry_name":"the_geom","properties":{"PLACES_":8,"PLACES_ID":3,"X":231388.469,"Y":950475.375,"OFFSETX":0,"OFFSETY":0,"HEIGHT":65,"SYMBOL":1,"LEVEL_":1,"TEXT":"ROSEMONT","NAME":"ROSEMONT","FEATURE":"PPL","COUNTY":25003,"COORD":"424813N0710642W","DATE_":1978,"ELEVATION":109,"SOURCE":"USGS","TILE_NAME":"122"}},{"type":"Feature","id":"MGISGEONAMX2.24","geometry":{"type":"Point","coordinates":[-71.08440773,42.77974152]},"geometry_name":"the_geom","properties":{"PLACES_":5,"PLACES_ID":4,"X":234008.984,"Y":947764.563,"OFFSETX":0,"OFFSETY":0,"HEIGHT":85,"SYMBOL":1,"LEVEL_":1,"TEXT":"H A V E R H I L L","NAME":"HAVERHILL","FEATURE":"PPL","COUNTY":25009,"COORD":"","DATE_":1978,"ELEVATION":27,"SOURCE":"USGS","TILE_NAME":"122"}},{"type":"Feature","id":"MGISGEONAMX2.25","geometry":{"type":"Point","coordinates":[-71.08032147,42.76778754]},"geometry_name":"the_geom","properties":{"PLACES_":6,"PLACES_ID":5,"X":234349.906,"Y":946438.25,"OFFSETX":0,"OFFSETY":0,"HEIGHT":85,"SYMBOL":1,"LEVEL_":1,"TEXT":"B R A D F O R D","NAME":"BRADFORD","FEATURE":"PPL-SUBDVSN","COUNTY":25009,"COORD":"","DATE_":1978,"ELEVATION":59,"SOURCE":"USGS","TILE_NAME":"122"}},{"type":"Feature","id":"MGISGEONAMX2.26","geometry":{"type":"Point","coordinates":[-71.05155082,42.76370142]},"geometry_name":"the_geom","properties":{"PLACES_":1,"PLACES_ID":6,"X":236707.094,"Y":945996.313,"OFFSETX":0,"OFFSETY":0,"HEIGHT":63.5,"SYMBOL":1,"LEVEL_":1,"TEXT":"RIVERSIDE","NAME":"RIVERSIDE","FEATURE":"PPL-SUBDVSN","COUNTY":25009,"COORD":"424550N0710300W","DATE_":1978,"ELEVATION":21,"SOURCE":"USGS","TILE_NAME":"122"}},{"type":"Feature","id":"MGISGEONAMX2.27","geometry":{"type":"Point","coordinates":[-71.02932188,42.75808825]},"geometry_name":"the_geom","properties":{"PLACES_":4,"PLACES_ID":7,"X":238530.031,"Y":945382.563,"OFFSETX":0,"OFFSETY":0,"HEIGHT":90,"SYMBOL":1,"LEVEL_":1,"TEXT":"G R O V E L A N D","NAME":"GROVELAND","FEATURE":"PPL","COUNTY":25009,"COORD":"","DATE_":1978,"ELEVATION":48,"SOURCE":"USGS","TILE_NAME":"122"}},{"type":"Feature","id":"MGISGEONAMX2.28","geometry":{"type":"Point","coordinates":[-71.10206298,42.75604714]},"geometry_name":"the_geom","properties":{"PLACES_":7,"PLACES_ID":8,"X":232576.5,"Y":945125.5,"OFFSETX":0,"OFFSETY":0,"HEIGHT":65,"SYMBOL":1,"LEVEL_":1,"TEXT":"WARD HILL","NAME":"WARD HILL","FEATURE":"PPL","COUNTY":25009,"COORD":"424524N0710615W","DATE_":1978,"ELEVATION":64,"SOURCE":"USGS","TILE_NAME":"122"}},{"type":"Feature","id":"MGISGEONAMX2.29","geometry":{"type":"Point","coordinates":[-71.16712211,42.78795177]},"geometry_name":"the_geom","properties":{"PLACES_":1,"PLACES_ID":1,"X":227236.734,"Y":948646.938,"OFFSETX":0,"OFFSETY":0,"HEIGHT":60,"SYMBOL":1,"LEVEL_":1,"TEXT":"AYERS\\VILLAGE","NAME":"AYERS VILLAGE","FEATURE":"PPL","COUNTY":25009,"COORD":"","DATE_":1978,"ELEVATION":187,"SOURCE":"USGS","TILE_NAME":"111"}},{"type":"Feature","id":"MGISGEONAMX2.30","geometry":{"type":"Point","coordinates":[-71.17928649,42.77501625]},"geometry_name":"the_geom","properties":{"PLACES_":2,"PLACES_ID":2,"X":226246.828,"Y":947206.125,"OFFSETX":0,"OFFSETY":0,"HEIGHT":60,"SYMBOL":1,"LEVEL_":1,"TEXT":"GROSVENOR\\CORNER","NAME":"GROSVENOR CORNER","FEATURE":"PPL","COUNTY":25009,"COORD":"","DATE_":1978,"ELEVATION":170,"SOURCE":"USGS","TILE_NAME":"111"}},{"type":"Feature","id":"MGISGEONAMX2.31","geometry":{"type":"Point","coordinates":[-71.1590692,42.7706275]},"geometry_name":"the_geom","properties":{"PLACES_":3,"PLACES_ID":3,"X":227903.328,"Y":946725,"OFFSETX":0,"OFFSETY":0,"HEIGHT":60,"SYMBOL":1,"LEVEL_":1,"TEXT":"GRACELAND\\PARK","NAME":"GRACELAND PARK","FEATURE":"PPL","COUNTY":25009,"COORD":"","DATE_":1978,"ELEVATION":200,"SOURCE":"USGS","TILE_NAME":"111"}},{"type":"Feature","id":"MGISGEONAMX2.32","geometry":{"type":"Point","coordinates":[-71.16127364,42.76821868]},"geometry_name":"the_geom","properties":{"PLACES_":4,"PLACES_ID":4,"X":227723.969,"Y":946456.688,"OFFSETX":0,"OFFSETY":0,"HEIGHT":60,"SYMBOL":1,"LEVEL_":1,"TEXT":"MAPLE PARK","NAME":"MAPLE PARK","FEATURE":"PPL","COUNTY":25009,"COORD":"424606N0710945W","DATE_":1978,"ELEVATION":150,"SOURCE":"USGS","TILE_NAME":"111"}},{"type":"Feature","id":"MGISGEONAMX2.33","geometry":{"type":"Point","coordinates":[-71.17001006,42.75886121]},"geometry_name":"the_geom","properties":{"PLACES_":5,"PLACES_ID":5,"X":227012.938,"Y":945414.375,"OFFSETX":0,"OFFSETY":0,"HEIGHT":60,"SYMBOL":1,"LEVEL_":1,"TEXT":"TOZIER CORNER","NAME":"TOZIER CORNER","FEATURE":"PPL","COUNTY":25009,"COORD":"424530N0711017W","DATE_":1978,"ELEVATION":190,"SOURCE":"USGS","TILE_NAME":"111"}},{"type":"Feature","id":"MGISGEONAMX2.34","geometry":{"type":"Point","coordinates":[-73.18817184,42.7416446]},"geometry_name":"the_geom","properties":{"PLACES_":6,"PLACES_ID":1,"X":61777.27,"Y":944817.438,"OFFSETX":0,"OFFSETY":0,"HEIGHT":50,"SYMBOL":1,"LEVEL_":1,"TEXT":"CAMP\\MURIEL FLAGG","NAME":"CAMP MURIEL FLAGG","FEATURE":"PPL","COUNTY":25003,"COORD":"","DATE_":1978,"ELEVATION":880,"SOURCE":"USGS","TILE_NAME":"11"}},{"type":"Feature","id":"MGISGEONAMX2.35","geometry":{"type":"Point","coordinates":[-73.19560582,42.73075971]},"geometry_name":"the_geom","properties":{"PLACES_":7,"PLACES_ID":2,"X":61144.641,"Y":943620.563,"OFFSETX":0,"OFFSETY":0,"HEIGHT":76.2,"SYMBOL":1,"LEVEL_":1,"TEXT":"WHITE OAKS","NAME":"WHITE OAKS","FEATURE":"PPL","COUNTY":25003,"COORD":"424351N0731153W","DATE_":1978,"ELEVATION":656,"SOURCE":"USGS","TILE_NAME":"11"}},{"type":"Feature","id":"MGISGEONAMX2.36","geometry":{"type":"Point","coordinates":[-73.20802725,42.71306031]},"geometry_name":"the_geom","properties":{"PLACES_":8,"PLACES_ID":3,"X":60088.199,"Y":941675.063,"OFFSETX":0,"OFFSETY":0,"HEIGHT":85,"SYMBOL":1,"LEVEL_":1,"TEXT":"W I L L I A M S T O W N","NAME":"WILLIAMSTOWN","FEATURE":"PPL","COUNTY":25003,"COORD":"","DATE_":1978,"ELEVATION":638,"SOURCE":"USGS","TILE_NAME":"11"}},{"type":"Feature","id":"MGISGEONAMX2.37","geometry":{"type":"Point","coordinates":[-73.16497893,42.70501758]},"geometry_name":"the_geom","properties":{"PLACES_":2,"PLACES_ID":4,"X":63596.578,"Y":940712.063,"OFFSETX":0,"OFFSETY":0,"HEIGHT":63.5,"SYMBOL":1,"LEVEL_":1,"TEXT":"BLACKINTON","NAME":"BLACKINTON","FEATURE":"PPL-SUBDVSN","COUNTY":25003,"COORD":"424215N0731000W","DATE_":1897,"ELEVATION":623,"SOURCE":"USGS","TILE_NAME":"11"}},{"type":"Feature","id":"MGISGEONAMX2.38","geometry":{"type":"Point","coordinates":[-73.13558165,42.69707784]},"geometry_name":"the_geom","properties":{"PLACES_":3,"PLACES_ID":5,"X":65987.742,"Y":939783.625,"OFFSETX":0,"OFFSETY":0,"HEIGHT":76.2,"SYMBOL":1,"LEVEL_":1,"TEXT":"BRAYTONVILLE","NAME":"BRAYTONVILLE","FEATURE":"PPL","COUNTY":25003,"COORD":"424154N0730750W","DATE_":1978,"ELEVATION":663,"SOURCE":"USGS","TILE_NAME":"11"}},{"type":"Feature","id":"MGISGEONAMX2.39","geometry":{"type":"Point","coordinates":[-73.15422667,42.69608779]},"geometry_name":"the_geom","properties":{"PLACES_":1,"PLACES_ID":6,"X":64458.109,"Y":939703.125,"OFFSETX":0,"OFFSETY":0,"HEIGHT":76.2,"SYMBOL":1,"LEVEL_":1,"TEXT":"GREYLOCK","NAME":"GREYLOCK","FEATURE":"PPL","COUNTY":25003,"COORD":"424147N0730907W","DATE_":1978,"ELEVATION":650,"SOURCE":"USGS","TILE_NAME":"11"}},{"type":"Feature","id":"MGISGEONAMX2.40","geometry":{"type":"Point","coordinates":[-73.20892738,42.67865603]},"geometry_name":"the_geom","properties":{"PLACES_":5,"PLACES_ID":7,"X":59937.91,"Y":937855.438,"OFFSETX":0,"OFFSETY":0,"HEIGHT":60,"SYMBOL":1,"LEVEL_":1,"TEXT":"SWEETS CORNER","NAME":"SWEETS CORNER","FEATURE":"PPL","COUNTY":25003,"COORD":"424042N0731240W","DATE_":1978,"ELEVATION":752,"SOURCE":"USGS","TILE_NAME":"11"}},{"type":"Feature","id":"MGISGEONAMX2.41","geometry":{"type":"Point","coordinates":[-73.23797662,42.66075645]},"geometry_name":"the_geom","properties":{"PLACES_":4,"PLACES_ID":8,"X":57516.875,"Y":935915.563,"OFFSETX":0,"OFFSETY":0,"HEIGHT":76.2,"SYMBOL":1,"LEVEL_":1,"TEXT":"SOUTH\\WILLIAMSTOWN","NAME":"SOUTH WILLIAMSTOWN","FEATURE":"PPL","COUNTY":25003,"COORD":"","DATE_":1978,"ELEVATION":869,"SOURCE":"USGS","TILE_NAME":"11"}},{"type":"Feature","id":"MGISGEONAMX2.42","geometry":{"type":"Point","coordinates":[-73.07763948,42.71502048]},"geometry_name":"the_geom","properties":{"PLACES_":1,"PLACES_ID":1,"X":70771.578,"Y":941687.063,"OFFSETX":0,"OFFSETY":0,"HEIGHT":65,"SYMBOL":1,"LEVEL_":1,"TEXT":"BRIGGSVILLE","NAME":"BRIGGSVILLE","FEATURE":"PPL","COUNTY":25003,"COORD":"424256N0730451W","DATE_":1978,"ELEVATION":957,"SOURCE":"USGS","TILE_NAME":"17"}},{"type":"Feature","id":"MGISGEONAMX2.43","geometry":{"type":"Point","coordinates":[-73.06812255,42.7137212]},"geometry_name":"the_geom","properties":{"PLACES_":2,"PLACES_ID":2,"X":71548.391,"Y":941528.375,"OFFSETX":0,"OFFSETY":0,"HEIGHT":65,"SYMBOL":1,"LEVEL_":1,"TEXT":"HOUGHTONVILLE","NAME":"HOUGHTONVILLE","FEATURE":"PPL","COUNTY":25003,"COORD":"424246N0730430W","DATE_":1978,"ELEVATION":1071,"SOURCE":"USGS","TILE_NAME":"17"}},{"type":"Feature","id":"MGISGEONAMX2.44","geometry":{"type":"Point","coordinates":[-73.11256231,42.70390455]},"geometry_name":"the_geom","properties":{"PLACES_":3,"PLACES_ID":3,"X":67887.953,"Y":940505.938,"OFFSETX":0,"OFFSETY":0,"HEIGHT":85,"SYMBOL":1,"LEVEL_":1,"TEXT":"N O R T H    A D A M S","NAME":"NORTH ADAMS","FEATURE":"PPL","COUNTY":25003,"COORD":"","DATE_":1978,"ELEVATION":707,"SOURCE":"USGS","TILE_NAME":"17"}},{"type":"Feature","id":"MGISGEONAMX2.45","geometry":{"type":"Point","coordinates":[-73.07273424,42.69591557]},"geometry_name":"the_geom","properties":{"PLACES_":4,"PLACES_ID":4,"X":71134.203,"Y":939557.688,"OFFSETX":0,"OFFSETY":0,"HEIGHT":65,"SYMBOL":1,"LEVEL_":1,"TEXT":"WEST SUMMIT","NAME":"WEST SUMMIT","FEATURE":"PPL","COUNTY":25003,"COORD":"424147N0730400W","DATE_":1978,"ELEVATION":2018,"SOURCE":"USGS","TILE_NAME":"17"}},{"type":"Feature","id":"MGISGEONAMX2.46","geometry":{"type":"Point","coordinates":[-73.02138242,42.6879262]},"geometry_name":"the_geom","properties":{"PLACES_":7,"PLACES_ID":5,"X":75325.555,"Y":938594,"OFFSETX":0,"OFFSETY":0,"HEIGHT":65,"SYMBOL":1,"LEVEL_":1,"TEXT":"WHITCOMB SUMMIT","NAME":"WHITCOMB SUMMIT","FEATURE":"PPL","COUNTY":25003,"COORD":"424117N0730121W","DATE_":1978,"ELEVATION":2173,"SOURCE":"USGS","TILE_NAME":"17"}},{"type":"Feature","id":"MGISGEONAMX2.47","geometry":{"type":"Point","coordinates":[-73.01069712,42.66702591]},"geometry_name":"the_geom","properties":{"PLACES_":8,"PLACES_ID":6,"X":76159.984,"Y":936257.063,"OFFSETX":0,"OFFSETY":0,"HEIGHT":65,"SYMBOL":1,"LEVEL_":1,"TEXT":"FLORIDA","NAME":"FLORIDA","FEATURE":"PPL","COUNTY":25003,"COORD":"424000N0730042W","DATE_":1978,"ELEVATION":1895,"SOURCE":"USGS","TILE_NAME":"17"}},{"type":"Feature","id":"MGISGEONAMX2.48","geometry":{"type":"Point","coordinates":[-73.10710332,42.65213839]},"geometry_name":"the_geom","properties":{"PLACES_":5,"PLACES_ID":7,"X":68226.797,"Y":934748,"OFFSETX":0,"OFFSETY":0,"HEIGHT":65,"SYMBOL":1,"LEVEL_":1,"TEXT":"ZYLONITE","NAME":"ZYLONITE","FEATURE":"PPL-SUBDVSN","COUNTY":25003,"COORD":"423907N0730630W","DATE_":1978,"ELEVATION":700,"SOURCE":"USGS","TILE_NAME":"17"}},{"type":"Feature","id":"MGISGEONAMX2.49","geometry":{"type":"Point","coordinates":[-73.11678221,42.63824399]},"geometry_name":"the_geom","properties":{"PLACES_":6,"PLACES_ID":8,"X":67404.023,"Y":933219.813,"OFFSETX":0,"OFFSETY":0,"HEIGHT":65,"SYMBOL":1,"LEVEL_":1,"TEXT":"RENFREW","NAME":"RENFREW","FEATURE":"PPL","COUNTY":25003,"COORD":"423816N0730647W","DATE_":1978,"ELEVATION":760,"SOURCE":"USGS","TILE_NAME":"17"}},{"type":"Feature","id":"MGISGEONAMX2.50","geometry":{"type":"Point","coordinates":[-72.94541204,42.72295341]},"geometry_name":"the_geom","properties":{"PLACES_":1,"PLACES_ID":1,"X":81616.508,"Y":942376.25,"OFFSETX":0,"OFFSETY":0,"HEIGHT":60,"SYMBOL":1,"LEVEL_":1,"TEXT":"MONROE\\BRIDGE","NAME":"MONROE BRIDGE","FEATURE":"PPL","COUNTY":25011,"COORD":"","DATE_":1978,"ELEVATION":1106,"SOURCE":"USGS","TILE_NAME":"23"}},{"type":"Feature","id":"MGISGEONAMX2.51","geometry":{"type":"Point","coordinates":[-72.89824113,42.69212752]},"geometry_name":"the_geom","properties":{"PLACES_":3,"PLACES_ID":2,"X":85423.461,"Y":938887.938,"OFFSETX":0,"OFFSETY":0,"HEIGHT":90,"SYMBOL":1,"LEVEL_":1,"TEXT":"R O W E","NAME":"ROWE","FEATURE":"PPL","COUNTY":25011,"COORD":"","DATE_":1978,"ELEVATION":1364,"SOURCE":"USGS","TILE_NAME":"23"}},{"type":"Feature","id":"MGISGEONAMX2.52","geometry":{"type":"Point","coordinates":[-72.90043441,42.68839504]},"geometry_name":"the_geom","properties":{"PLACES_":2,"PLACES_ID":3,"X":85236.945,"Y":938476.313,"OFFSETX":0,"OFFSETY":0,"HEIGHT":55,"SYMBOL":1,"LEVEL_":1,"TEXT":"CAMP\\ROWE","NAME":"CAMP ROWE","FEATURE":"PPL","COUNTY":25011,"COORD":"","DATE_":1978,"ELEVATION":1420,"SOURCE":"USGS","TILE_NAME":"23"}},{"type":"Feature","id":"MGISGEONAMX2.53","geometry":{"type":"Point","coordinates":[-72.99125225,42.66979659]},"geometry_name":"the_geom","properties":{"PLACES_":5,"PLACES_ID":4,"X":77759.203,"Y":936536.75,"OFFSETX":0,"OFFSETY":0,"HEIGHT":60,"SYMBOL":1,"LEVEL_":1,"TEXT":"HOOSAC TUNNEL","NAME":"HOOSAC TUNNEL","FEATURE":"PLACE","COUNTY":25003,"COORD":"424009N0725936W","DATE_":1978,"ELEVATION":745,"SOURCE":"USGS","TILE_NAME":"23"}},{"type":"Feature","id":"MGISGEONAMX2.54","geometry":{"type":"Point","coordinates":[-72.9883276,42.66760145]},"geometry_name":"the_geom","properties":{"PLACES_":4,"PLACES_ID":5,"X":77994.664,"Y":936288.75,"OFFSETX":0,"OFFSETY":0,"HEIGHT":60,"SYMBOL":1,"LEVEL_":1,"TEXT":"HOOSAC TUNNEL\\STATION","NAME":"HOOSAC TUNNEL STATION","FEATURE":"PPL","COUNTY":25011,"COORD":"","DATE_":1978,"ELEVATION":745,"SOURCE":"USGS","TILE_NAME":"23"}},{"type":"Feature","id":"MGISGEONAMX2.55","geometry":{"type":"Point","coordinates":[-72.99692826,42.6528401]},"geometry_name":"the_geom","properties":{"PLACES_":6,"PLACES_ID":6,"X":77260.922,"Y":934661.563,"OFFSETX":0,"OFFSETY":0,"HEIGHT":65,"SYMBOL":1,"LEVEL_":1,"TEXT":"DRURY","NAME":"DRURY","FEATURE":"PPL","COUNTY":25003,"COORD":"423908N0725953W","DATE_":1978,"ELEVATION":1596,"SOURCE":"USGS","TILE_NAME":"23"}},{"type":"Feature","id":"MGISGEONAMX2.56","geometry":{"type":"Point","coordinates":[-72.93024287,42.65240744]},"geometry_name":"the_geom","properties":{"PLACES_":7,"PLACES_ID":7,"X":82727.391,"Y":934519.688,"OFFSETX":0,"OFFSETY":0,"HEIGHT":65,"SYMBOL":1,"LEVEL_":1,"TEXT":"ZOAR","NAME":"ZOAR","FEATURE":"PPL","COUNTY":25011,"COORD":"423909N0725555W","DATE_":1978,"ELEVATION":640,"SOURCE":"USGS","TILE_NAME":"23"}},{"type":"Feature","id":"MGISGEONAMX2.57","geometry":{"type":"Point","coordinates":[-72.82514578,42.70503276]},"geometry_name":"the_geom","properties":{"PLACES_":1,"PLACES_ID":1,"X":91434.914,"Y":940225.75,"OFFSETX":0,"OFFSETY":0,"HEIGHT":65,"SYMBOL":1,"LEVEL_":1,"TEXT":"NORTH HEATH","NAME":"NORTH HEATH","FEATURE":"PPL","COUNTY":25011,"COORD":"424223N0724935W","DATE_":1978,"ELEVATION":1281,"SOURCE":"USGS","TILE_NAME":"29"}},{"type":"Feature","id":"MGISGEONAMX2.58","geometry":{"type":"Point","coordinates":[-72.81886642,42.67383809]},"geometry_name":"the_geom","properties":{"PLACES_":4,"PLACES_ID":2,"X":91895.742,"Y":936752.875,"OFFSETX":0,"OFFSETY":0,"HEIGHT":76.2,"SYMBOL":1,"LEVEL_":1,"TEXT":"HEATH","NAME":"HEATH","FEATURE":"PPL","COUNTY":25011,"COORD":"424024N0724920W","DATE_":1978,"ELEVATION":1680,"SOURCE":"USGS","TILE_NAME":"29"}},{"type":"Feature","id":"MGISGEONAMX2.59","geometry":{"type":"Point","coordinates":[-72.84718537,42.66990572]},"geometry_name":"the_geom","properties":{"PLACES_":3,"PLACES_ID":3,"X":89567.797,"Y":936352.375,"OFFSETX":0,"OFFSETY":0,"HEIGHT":65,"SYMBOL":1,"LEVEL_":1,"TEXT":"DELL","NAME":"DELL","FEATURE":"PPL","COUNTY":25011,"COORD":"424015N0725055W","DATE_":1978,"ELEVATION":1145,"SOURCE":"USGS","TILE_NAME":"29"}},{"type":"Feature","id":"MGISGEONAMX2.60","geometry":{"type":"Point","coordinates":[-72.86825499,42.62915542]},"geometry_name":"the_geom","properties":{"PLACES_":2,"PLACES_ID":4,"X":87768.203,"Y":931853.688,"OFFSETX":0,"OFFSETY":0,"HEIGHT":85,"SYMBOL":1,"LEVEL_":1,"TEXT":"C H A R L E M O N T","NAME":"CHARLEMONT","FEATURE":"PPL","COUNTY":25011,"COORD":"","DATE_":1978,"ELEVATION":584,"SOURCE":"USGS","TILE_NAME":"29"}},{"type":"Feature","id":"MGISGEONAMX2.61","geometry":{"type":"Point","coordinates":[-72.67947199,42.71210363]},"geometry_name":"the_geom","properties":{"PLACES_":1,"PLACES_ID":1,"X":103379.57,"Y":940835.938,"OFFSETX":0,"OFFSETY":0,"HEIGHT":65,"SYMBOL":1,"LEVEL_":1,"TEXT":"STEWARTVILLE","NAME":"STEWARTVILLE","FEATURE":"PPL","COUNTY":25011,"COORD":"424240N0724025W","DATE_":1978,"ELEVATION":497,"SOURCE":"USGS","TILE_NAME":"35"}},{"type":"Feature","id":"MGISGEONAMX2.62","geometry":{"type":"Point","coordinates":[-72.70828412,42.7097367]},"geometry_name":"the_geom","properties":{"PLACES_":2,"PLACES_ID":2,"X":101015.758,"Y":940606.063,"OFFSETX":0,"OFFSETY":0,"HEIGHT":65,"SYMBOL":1,"LEVEL_":1,"TEXT":"ELM GROVE","NAME":"ELM GROVE","FEATURE":"PPL","COUNTY":25011,"COORD":"","DATE_":1978,"ELEVATION":721,"SOURCE":"USGS","TILE_NAME":"35"}},{"type":"Feature","id":"MGISGEONAMX2.63","geometry":{"type":"Point","coordinates":[-72.63504059,42.70250342]},"geometry_name":"the_geom","properties":{"PLACES_":3,"PLACES_ID":3,"X":107004.906,"Y":939720.188,"OFFSETX":0,"OFFSETY":0,"HEIGHT":85,"SYMBOL":1,"LEVEL_":1,"TEXT":"L E Y D O N","NAME":"LEYDON","FEATURE":"PLACE","COUNTY":0,"COORD":"","DATE_":1999,"ELEVATION":0,"SOURCE":"DEP","TILE_NAME":"35"}},{"type":"Feature","id":"MGISGEONAMX2.64","geometry":{"type":"Point","coordinates":[-72.66683339,42.70146509]},"geometry_name":"the_geom","properties":{"PLACES_":4,"PLACES_ID":4,"X":104398.672,"Y":939640,"OFFSETX":0,"OFFSETY":0,"HEIGHT":65,"SYMBOL":1,"LEVEL_":1,"TEXT":"WEST LEYDEN","NAME":"WEST LEYDEN","FEATURE":"PPL","COUNTY":25011,"COORD":"424205N0723955W","DATE_":1978,"ELEVATION":490,"SOURCE":"USGS","TILE_NAME":"35"}},{"type":"Feature","id":"MGISGEONAMX2.65","geometry":{"type":"Point","coordinates":[-72.74875989,42.68164977]},"geometry_name":"the_geom","properties":{"PLACES_":5,"PLACES_ID":5,"X":97654.484,"Y":937534.063,"OFFSETX":0,"OFFSETY":0,"HEIGHT":65,"SYMBOL":1,"LEVEL_":1,"TEXT":"ADAMSVILLE","NAME":"ADAMSVILLE","FEATURE":"PPL","COUNTY":25011,"COORD":"424053N0724455W","DATE_":1978,"ELEVATION":660,"SOURCE":"USGS","TILE_NAME":"35"}},{"type":"Feature","id":"MGISGEONAMX2.66","geometry":{"type":"Point","coordinates":[-72.71860425,42.67543999]},"geometry_name":"the_geom","properties":{"PLACES_":6,"PLACES_ID":6,"X":100115.945,"Y":936808.563,"OFFSETX":0,"OFFSETY":0,"HEIGHT":65,"SYMBOL":1,"LEVEL_":1,"TEXT":"FOUNDRY\\VILLAGE","NAME":"FOUNDRY VILLAGE","FEATURE":"PPL","COUNTY":25011,"COORD":"","DATE_":1978,"ELEVATION":554,"SOURCE":"USGS","TILE_NAME":"35"}},{"type":"Feature","id":"MGISGEONAMX2.67","geometry":{"type":"Point","coordinates":[-72.7148689,42.67126031]},"geometry_name":"the_geom","properties":{"PLACES_":7,"PLACES_ID":7,"X":100415.484,"Y":936339.938,"OFFSETX":0,"OFFSETY":0,"HEIGHT":65,"SYMBOL":1,"LEVEL_":1,"TEXT":"LYONSVILLE","NAME":"LYONSVILLE","FEATURE":"PPL","COUNTY":25011,"COORD":"424020N0724257W","DATE_":1978,"ELEVATION":580,"SOURCE":"USGS","TILE_NAME":"35"}},{"type":"Feature","id":"MGISGEONAMX2.68","geometry":{"type":"Point","coordinates":[-72.69828402,42.6712967]},"geometry_name":"the_geom","properties":{"PLACES_":8,"PLACES_ID":8,"X":101774.938,"Y":936324.75,"OFFSETX":0,"OFFSETY":0,"HEIGHT":85,"SYMBOL":1,"LEVEL_":1,"TEXT":"C O L R A I N","NAME":"COLRAIN","FEATURE":"PPL","COUNTY":25011,"COORD":"","DATE_":1978,"ELEVATION":633,"SOURCE":"USGS","TILE_NAME":"35"}},{"type":"Feature","id":"MGISGEONAMX2.69","geometry":{"type":"Point","coordinates":[-72.71342341,42.65613533]},"geometry_name":"the_geom","properties":{"PLACES_":9,"PLACES_ID":9,"X":100510.063,"Y":934658.25,"OFFSETX":0,"OFFSETY":0,"HEIGHT":65,"SYMBOL":1,"LEVEL_":1,"TEXT":"GRISWOLDVILLE","NAME":"GRISWOLDVILLE","FEATURE":"PPL","COUNTY":25011,"COORD":"423923N0724252W","DATE_":1978,"ELEVATION":503,"SOURCE":"USGS","TILE_NAME":"35"}},{"type":"Feature","id":"MGISGEONAMX2.70","geometry":{"type":"Point","coordinates":[-72.73317456,42.63825328]},"geometry_name":"the_geom","properties":{"PLACES_":10,"PLACES_ID":10,"X":98862.039,"Y":932695.25,"OFFSETX":0,"OFFSETY":0,"HEIGHT":65,"SYMBOL":1,"LEVEL_":1,"TEXT":"SHATTUCKVILLE","NAME":"SHATTUCKVILLE","FEATURE":"PPL","COUNTY":25011,"COORD":"423815N0724337W","DATE_":1978,"ELEVATION":482,"SOURCE":"USGS","TILE_NAME":"35"}},{"type":"Feature","id":"MGISGEONAMX2.71","geometry":{"type":"Point","coordinates":[-72.67454568,42.63414616]},"geometry_name":"the_geom","properties":{"PLACES_":11,"PLACES_ID":11,"X":103663.852,"Y":932171.188,"OFFSETX":0,"OFFSETY":0,"HEIGHT":65,"SYMBOL":1,"LEVEL_":1,"TEXT":"EAST SHELBURNE","NAME":"EAST SHELBURNE","FEATURE":"PPL","COUNTY":25011,"COORD":"423807N0724002W","DATE_":1978,"ELEVATION":697,"SOURCE":"USGS","TILE_NAME":"35"}},{"type":"Feature","id":"MGISGEONAMX2.72","geometry":{"type":"Point","coordinates":[-72.58403727,42.7185488]},"geometry_name":"the_geom","properties":{"PLACES_":1,"PLACES_ID":1,"X":111206.086,"Y":941448.125,"OFFSETX":0,"OFFSETY":0,"HEIGHT":70,"SYMBOL":1,"LEVEL_":1,"TEXT":"NORTH BERNARDSTON","NAME":"NORTH BERNARDSTON","FEATURE":"PPL","COUNTY":25011,"COORD":"424310N0723425W","DATE_":1978,"ELEVATION":445,"SOURCE":"USGS","TILE_NAME":"41"}},{"type":"Feature","id":"MGISGEONAMX2.73","geometry":{"type":"Point","coordinates":[-72.55588156,42.67225713]},"geometry_name":"the_geom","properties":{"PLACES_":2,"PLACES_ID":2,"X":113448.555,"Y":936277.188,"OFFSETX":0,"OFFSETY":0,"HEIGHT":125,"SYMBOL":1,"LEVEL_":1,"TEXT":"BERNARDSTON","NAME":"BERNARDSTON","FEATURE":"PPL","COUNTY":25011,"COORD":"424015N0723300W","DATE_":1978,"ELEVATION":360,"SOURCE":"USGS","TILE_NAME":"41"}},{"type":"Feature","id":"MGISGEONAMX2.74","geometry":{"type":"Point","coordinates":[-72.5127113,42.66276243]},"geometry_name":"the_geom","properties":{"PLACES_":4,"PLACES_ID":3,"X":116974.563,"Y":935179.625,"OFFSETX":0,"OFFSETY":0,"HEIGHT":76.2,"SYMBOL":1,"LEVEL_":1,"TEXT":"COLD SPRING","NAME":"COLD SPRING","FEATURE":"PPL","COUNTY":25011,"COORD":"423945N0723050W","DATE_":1978,"ELEVATION":377,"SOURCE":"USGS","TILE_NAME":"41"}},{"type":"Feature","id":"MGISGEONAMX2.75","geometry":{"type":"Point","coordinates":[-72.57367279,42.65613471]},"geometry_name":"the_geom","properties":{"PLACES_":3,"PLACES_ID":4,"X":111967.727,"Y":934504.563,"OFFSETX":0,"OFFSETY":0,"HEIGHT":76.2,"SYMBOL":1,"LEVEL_":1,"TEXT":"HALES CROSSING","NAME":"HALES CROSSING","FEATURE":"PPL","COUNTY":25011,"COORD":"423915N0723352W","DATE_":1978,"ELEVATION":360,"SOURCE":"USGS","TILE_NAME":"41"}},{"type":"Feature","id":"MGISGEONAMX2.76","geometry":{"type":"Point","coordinates":[-72.52295501,42.64035447]},"geometry_name":"the_geom","properties":{"PLACES_":5,"PLACES_ID":5,"X":116104.938,"Y":932700.625,"OFFSETX":0,"OFFSETY":0,"HEIGHT":100,"SYMBOL":1,"LEVEL_":1,"TEXT":"G I L L","NAME":"GILL","FEATURE":"PPL","COUNTY":25011,"COORD":"","DATE_":1978,"ELEVATION":280,"SOURCE":"USGS","TILE_NAME":"41"}},{"type":"Feature","id":"MGISGEONAMX2.77","geometry":{"type":"Point","coordinates":[-70.61941514,42.68447789]},"geometry_name":"the_geom","properties":{"PLACES_":1,"PLACES_ID":1,"X":272168.781,"Y":937471.563,"OFFSETX":0,"OFFSETY":0,"HEIGHT":50,"SYMBOL":1,"LEVEL_":1,"TEXT":"OCEAN VIEW","NAME":"OCEAN VIEW","FEATURE":"PPL","COUNTY":25009,"COORD":"424105N0703730W","DATE_":1978,"ELEVATION":40,"SOURCE":"USGS","TILE_NAME":"168_e"}},{"type":"Feature","id":"MGISGEONAMX2.78","geometry":{"type":"Point","coordinates":[-70.61972883,42.65543088]},"geometry_name":"the_geom","properties":{"PLACES_":2,"PLACES_ID":2,"X":272176.375,"Y":934244.75,"OFFSETX":0,"OFFSETY":0,"HEIGHT":80,"SYMBOL":1,"LEVEL_":1,"TEXT":"ROCKPORT","NAME":"ROCKPORT","FEATURE":"PPL","COUNTY":25009,"COORD":"423920N0703715W","DATE_":1978,"ELEVATION":77,"SOURCE":"USGS","TILE_NAME":"168_e"}},{"type":"Feature","id":"MGISGEONAMX2.79","geometry":{"type":"Point","coordinates":[-70.60711065,42.64060191]},"geometry_name":"the_geom","properties":{"PLACES_":3,"PLACES_ID":3,"X":273228.188,"Y":932608.313,"OFFSETX":0,"OFFSETY":0,"HEIGHT":60,"SYMBOL":1,"LEVEL_":1,"TEXT":"LANDS END","NAME":"LANDS END","FEATURE":"PPL","COUNTY":25009,"COORD":"423825N0703600W","DATE_":1978,"ELEVATION":86,"SOURCE":"USGS","TILE_NAME":"168_e"}},{"type":"Feature","id":"MGISGEONAMX2.80","geometry":{"type":"Point","coordinates":[-72.47200344,42.72606394]},"geometry_name":"the_geom","properties":{"PLACES_":11,"PLACES_ID":1,"X":120391.914,"Y":942172.313,"OFFSETX":0,"OFFSETY":0,"HEIGHT":70,"SYMBOL":1,"LEVEL_":1,"TEXT":"WEST NORTHFIELD","NAME":"WEST NORTHFIELD","FEATURE":"PPL","COUNTY":25011,"COORD":"424335N0722753W","DATE_":1978,"ELEVATION":280,"SOURCE":"USGS","TILE_NAME":"47"}},{"type":"Feature","id":"MGISGEONAMX2.81","geometry":{"type":"Point","coordinates":[-72.46198172,42.72384027]},"geometry_name":"the_geom","properties":{"PLACES_":10,"PLACES_ID":2,"X":121209.883,"Y":941916,"OFFSETX":0,"OFFSETY":0,"HEIGHT":60,"SYMBOL":1,"LEVEL_":1,"TEXT":"EAST NORTHFIELD STATION","NAME":"EAST NORTHFIELD STATION","FEATURE":"PPL","COUNTY":25011,"COORD":"424330N0722740W","DATE_":1978,"ELEVATION":280,"SOURCE":"USGS","TILE_NAME":"47"}},{"type":"Feature","id":"MGISGEONAMX2.82","geometry":{"type":"Point","coordinates":[-72.48462135,42.712202]},"geometry_name":"the_geom","properties":{"PLACES_":4,"PLACES_ID":3,"X":119340.766,"Y":940644.375,"OFFSETX":0,"OFFSETY":0,"HEIGHT":76.2,"SYMBOL":1,"LEVEL_":1,"TEXT":"SATANS KINGDOM","NAME":"SATANS KINGDOM","FEATURE":"PPL","COUNTY":25011,"COORD":"424245N0722850W","DATE_":1978,"ELEVATION":400,"SOURCE":"USGS","TILE_NAME":"47"}},{"type":"Feature","id":"MGISGEONAMX2.83","geometry":{"type":"Point","coordinates":[-72.45604137,42.69554748]},"geometry_name":"the_geom","properties":{"PLACES_":3,"PLACES_ID":4,"X":121661.172,"Y":938767.75,"OFFSETX":0,"OFFSETY":0,"HEIGHT":76.2,"SYMBOL":1,"LEVEL_":1,"TEXT":"NORTHFIELD","NAME":"NORTHFIELD","FEATURE":"PPL","COUNTY":25011,"COORD":"424145N0722712W","DATE_":1978,"ELEVATION":300,"SOURCE":"USGS","TILE_NAME":"47"}},{"type":"Feature","id":"MGISGEONAMX2.84","geometry":{"type":"Point","coordinates":[-72.44288384,42.69276009]},"geometry_name":"the_geom","properties":{"PLACES_":1,"PLACES_ID":5,"X":122735.844,"Y":938446.125,"OFFSETX":0,"OFFSETY":0,"HEIGHT":76.2,"SYMBOL":1,"LEVEL_":1,"TEXT":"EAST NORTHFIELD","NAME":"EAST NORTHFIELD","FEATURE":"PPL","COUNTY":25011,"COORD":"424135N0722620W","DATE_":1978,"ELEVATION":450,"SOURCE":"USGS","TILE_NAME":"47"}},{"type":"Feature","id":"MGISGEONAMX2.85","geometry":{"type":"Point","coordinates":[-72.49790627,42.68357423]},"geometry_name":"the_geom","properties":{"PLACES_":2,"PLACES_ID":6,"X":118215.32,"Y":937477.063,"OFFSETX":0,"OFFSETY":0,"HEIGHT":76.2,"SYMBOL":1,"LEVEL_":1,"TEXT":"MOUNT HERMON STATION","NAME":"MOUNT HERMON STATION","FEATURE":"PPL","COUNTY":25011,"COORD":"424102N0722931W","DATE_":1978,"ELEVATION":370,"SOURCE":"USGS","TILE_NAME":"47"}},{"type":"Feature","id":"MGISGEONAMX2.86","geometry":{"type":"Point","coordinates":[-72.48985648,42.66523813]},"geometry_name":"the_geom","properties":{"PLACES_":9,"PLACES_ID":7,"X":118851.383,"Y":935432.625,"OFFSETX":0,"OFFSETY":0,"HEIGHT":76.2,"SYMBOL":1,"LEVEL_":1,"TEXT":"MOUNT HERMON","NAME":"MOUNT HERMON","FEATURE":"PPL","COUNTY":25011,"COORD":"424005N0722909W","DATE_":1978,"ELEVATION":450,"SOURCE":"USGS","TILE_NAME":"47"}},{"type":"Feature","id":"MGISGEONAMX2.87","geometry":{"type":"Point","coordinates":[-72.47226924,42.65473563]},"geometry_name":"the_geom","properties":{"PLACES_":7,"PLACES_ID":8,"X":120279.828,"Y":934249.438,"OFFSETX":0,"OFFSETY":0,"HEIGHT":63,"SYMBOL":1,"LEVEL_":1,"TEXT":"MUNNS FERRY","NAME":"MUNNS FERRY","FEATURE":"PPL","COUNTY":25011,"COORD":"423915N0722800W","DATE_":1978,"ELEVATION":175,"SOURCE":"USGS","TILE_NAME":"47"}},{"type":"Feature","id":"MGISGEONAMX2.88","geometry":{"type":"Point","coordinates":[-72.46452163,42.65065369]},"geometry_name":"the_geom","properties":{"PLACES_":8,"PLACES_ID":9,"X":120909.93,"Y":933788.813,"OFFSETX":0,"OFFSETY":0,"HEIGHT":63,"SYMBOL":1,"LEVEL_":1,"TEXT":"GILL STATION","NAME":"GILL STATION","FEATURE":"PPL","COUNTY":25011,"COORD":"423900N0722752W","DATE_":1978,"ELEVATION":270,"SOURCE":"USGS","TILE_NAME":"47"}},{"type":"Feature","id":"MGISGEONAMX2.89","geometry":{"type":"Point","coordinates":[-72.42073292,42.64110919]},"geometry_name":"the_geom","properties":{"PLACES_":5,"PLACES_ID":10,"X":124488.984,"Y":932688.938,"OFFSETX":0,"OFFSETY":0,"HEIGHT":76.2,"SYMBOL":1,"LEVEL_":1,"TEXT":"SKY FARM","NAME":"SKY FARM","FEATURE":"PPL","COUNTY":25011,"COORD":"423824N0722513W","DATE_":1978,"ELEVATION":1220,"SOURCE":"USGS","TILE_NAME":"47"}},{"type":"Feature","id":"MGISGEONAMX2.90","geometry":{"type":"Point","coordinates":[-72.4969321,42.64042384]},"geometry_name":"the_geom","properties":{"PLACES_":6,"PLACES_ID":11,"X":118239.133,"Y":932683.063,"OFFSETX":0,"OFFSETY":0,"HEIGHT":76.2,"SYMBOL":1,"LEVEL_":1,"TEXT":"GILL","NAME":"GILL","FEATURE":"PPL","COUNTY":25011,"COORD":"423825N0723000W","DATE_":1978,"ELEVATION":280,"SOURCE":"DEP","TILE_NAME":"47"}},{"type":"Feature","id":"MGISGEONAMX2.91","geometry":{"type":"Point","coordinates":[-70.6622511,42.67755096]},"geometry_name":"the_geom","properties":{"PLACES_":3,"PLACES_ID":1,"X":268665.813,"Y":936666.75,"OFFSETX":0,"OFFSETY":0,"HEIGHT":76.2,"SYMBOL":1,"LEVEL_":1,"TEXT":"LANESVILLE","NAME":"LANESVILLE","FEATURE":"PPL","COUNTY":25009,"COORD":"424040N0703935W","DATE_":1978,"ELEVATION":69,"SOURCE":"USGS","TILE_NAME":"168_w"}},{"type":"Feature","id":"MGISGEONAMX2.92","geometry":{"type":"Point","coordinates":[-70.63623554,42.6733877]},"geometry_name":"the_geom","properties":{"PLACES_":12,"PLACES_ID":2,"X":270802.781,"Y":936225.563,"OFFSETX":0,"OFFSETY":0,"HEIGHT":65,"SYMBOL":1,"LEVEL_":1,"TEXT":"PIGEON COVE","NAME":"PIGEON COVE","FEATURE":"PPL","COUNTY":25009,"COORD":"424035N0703725W","DATE_":1978,"ELEVATION":101,"SOURCE":"USGS","TILE_NAME":"168_w"}},{"type":"Feature","id":"MGISGEONAMX2.93","geometry":{"type":"Point","coordinates":[-73.65139089,34.24438676]},"geometry_name":"the_geom","properties":{"PLACES_":13,"PLACES_ID":3,"X":0,"Y":0,"OFFSETX":0,"OFFSETY":0,"HEIGHT":0,"SYMBOL":0,"LEVEL_":0,"TEXT":"","NAME":"IPSWICH","FEATURE":"PLACE","COUNTY":0,"COORD":"","DATE_":1999,"ELEVATION":0,"SOURCE":"DEP","TILE_NAME":"168_w"}},{"type":"Feature","id":"MGISGEONAMX2.94","geometry":{"type":"Point","coordinates":[-70.66708723,42.66976783]},"geometry_name":"the_geom","properties":{"PLACES_":2,"PLACES_ID":4,"X":268277.875,"Y":935798.313,"OFFSETX":0,"OFFSETY":0,"HEIGHT":76.2,"SYMBOL":1,"LEVEL_":1,"TEXT":"BAY VIEW","NAME":"BAY VIEW","FEATURE":"PPL","COUNTY":25009,"COORD":"424012N0703955W","DATE_":1978,"ELEVATION":60,"SOURCE":"USGS","TILE_NAME":"168_w"}},{"type":"Feature","id":"MGISGEONAMX2.95","geometry":{"type":"Point","coordinates":[-70.68046875,42.65810741]},"geometry_name":"the_geom","properties":{"PLACES_":1,"PLACES_ID":5,"X":267193.406,"Y":934492.438,"OFFSETX":0,"OFFSETY":0,"HEIGHT":76.2,"SYMBOL":1,"LEVEL_":1,"TEXT":"ANNISQUAM","NAME":"ANNISQUAM","FEATURE":"PPL","COUNTY":25009,"COORD":"423930N0704040W","DATE_":1978,"ELEVATION":65,"SOURCE":"USGS","TILE_NAME":"168_w"}},{"type":"Feature","id":"MGISGEONAMX2.96","geometry":{"type":"Point","coordinates":[-70.6478048,42.64932268]},"geometry_name":"the_geom","properties":{"PLACES_":11,"PLACES_ID":6,"X":269881.188,"Y":933542.875,"OFFSETX":0,"OFFSETY":0,"HEIGHT":55,"SYMBOL":1,"LEVEL_":1,"TEXT":"WHALES JAW","NAME":"WHALES JAW","FEATURE":"PPL","COUNTY":25009,"COORD":"423907N0703853W","DATE_":1978,"ELEVATION":160,"SOURCE":"USGS","TILE_NAME":"168_w"}},{"type":"Feature","id":"MGISGEONAMX2.97","geometry":{"type":"Point","coordinates":[-70.70899101,42.64466519]},"geometry_name":"the_geom","properties":{"PLACES_":7,"PLACES_ID":7,"X":264868.781,"Y":932977.188,"OFFSETX":0,"OFFSETY":0,"HEIGHT":150,"SYMBOL":1,"LEVEL_":1,"TEXT":"G L O U C E S T E R","NAME":"GLOUCESTER","FEATURE":"PLACE","COUNTY":0,"COORD":"","DATE_":1999,"ELEVATION":0,"SOURCE":"DEP","TILE_NAME":"168_w"}},{"type":"Feature","id":"MGISGEONAMX2.98","geometry":{"type":"Point","coordinates":[-70.67661127,42.64145348]},"geometry_name":"the_geom","properties":{"PLACES_":8,"PLACES_ID":8,"X":267527.531,"Y":932645.563,"OFFSETX":0,"OFFSETY":0,"HEIGHT":55,"SYMBOL":1,"LEVEL_":1,"TEXT":"RIVERDALE STATION","NAME":"RIVERDALE STATION","FEATURE":"PPL","COUNTY":25009,"COORD":"423830N0704020W","DATE_":1978,"ELEVATION":50,"SOURCE":"USGS","TILE_NAME":"168_w"}},{"type":"Feature","id":"MGISGEONAMX2.99","geometry":{"type":"Point","coordinates":[-70.64042587,42.64005504]},"geometry_name":"the_geom","properties":{"PLACES_":10,"PLACES_ID":9,"X":270496.625,"Y":932519.5,"OFFSETX":0,"OFFSETY":0,"HEIGHT":60,"SYMBOL":1,"LEVEL_":1,"TEXT":"SILVER BEACH","NAME":"SILVER BEACH","FEATURE":"PPL","COUNTY":25001,"COORD":"423825N0703815W","DATE_":1978,"ELEVATION":20,"SOURCE":"USGS","TILE_NAME":"168_w"}},{"type":"Feature","id":"MGISGEONAMX2.100","geometry":{"type":"Point","coordinates":[-70.66772101,42.6358206]},"geometry_name":"the_geom","properties":{"PLACES_":6,"PLACES_ID":10,"X":268262.719,"Y":932026.938,"OFFSETX":0,"OFFSETY":0,"HEIGHT":50,"SYMBOL":1,"LEVEL_":1,"TEXT":"DOGTOWN COMMONS","NAME":"DOGTOWN COMMONS","FEATURE":"PPL","COUNTY":25009,"COORD":"423810N0703955W","DATE_":1978,"ELEVATION":0,"SOURCE":"USGS","TILE_NAME":"168_w"}},{"type":"Feature","id":"MGISGEONAMX2.101","geometry":{"type":"Point","coordinates":[-70.67262676,42.63389834]},"geometry_name":"the_geom","properties":{"PLACES_":5,"PLACES_ID":11,"X":267862.438,"Y":931809.5,"OFFSETX":0,"OFFSETY":0,"HEIGHT":60,"SYMBOL":1,"LEVEL_":1,"TEXT":"RIVERDALE","NAME":"RIVERDALE","FEATURE":"PPL","COUNTY":25009,"COORD":"420700N0723730W","DATE_":1978,"ELEVATION":50,"SOURCE":"USGS","TILE_NAME":"168_w"}},{"type":"Feature","id":"MGISGEONAMX2.102","geometry":{"type":"Point","coordinates":[-70.68409941,42.63080542]},"geometry_name":"the_geom","properties":{"PLACES_":4,"PLACES_ID":12,"X":266924.75,"Y":931456.875,"OFFSETX":0,"OFFSETY":0,"HEIGHT":65,"SYMBOL":1,"LEVEL_":1,"TEXT":"RIVERVIEW","NAME":"RIVERVIEW","FEATURE":"PPL","COUNTY":25009,"COORD":"423755N0704055W","DATE_":1978,"ELEVATION":50,"SOURCE":"USGS","TILE_NAME":"168_w"}},{"type":"Feature","id":"MGISGEONAMX2.103","geometry":{"type":"Point","coordinates":[-70.68675453,42.62755903]},"geometry_name":"the_geom","properties":{"PLACES_":9,"PLACES_ID":13,"X":266710.406,"Y":931094.188,"OFFSETX":0,"OFFSETY":0,"HEIGHT":65,"SYMBOL":1,"LEVEL_":1,"TEXT":"RIVERVIEW LANDING","NAME":"RIVERVIEW LANDING","FEATURE":"PPL","COUNTY":25009,"COORD":"423740N0704120W","DATE_":1978,"ELEVATION":5,"SOURCE":"USGS","TILE_NAME":"168_w"}},{"type":"Feature","id":"MGISGEONAMX2.104","geometry":{"type":"Point","coordinates":[-72.31726411,42.68194785]},"geometry_name":"the_geom","properties":{"PLACES_":1,"PLACES_ID":3,"X":133017.844,"Y":937138.875,"OFFSETX":0,"OFFSETY":0,"HEIGHT":60,"SYMBOL":1,"LEVEL_":1,"TEXT":"MAYO CORNERS","NAME":"MAYO CORNERS","FEATURE":"PPL","COUNTY":25011,"COORD":"424100N0721842W","DATE_":1978,"ELEVATION":950,"SOURCE":"USGS","TILE_NAME":"53"}},{"type":"Feature","id":"MGISGEONAMX2.105","geometry":{"type":"Point","coordinates":[-72.27292982,42.67205196]},"geometry_name":"the_geom","properties":{"PLACES_":2,"PLACES_ID":5,"X":136641.375,"Y":936005.75,"OFFSETX":0,"OFFSETY":0,"HEIGHT":60,"SYMBOL":1,"LEVEL_":1,"TEXT":"BLISSVILLE","NAME":"BLISSVILLE","FEATURE":"PPL","COUNTY":25011,"COORD":"424021N0721630W","DATE_":1978,"ELEVATION":640,"SOURCE":"USGS","TILE_NAME":"53"}},{"type":"Feature","id":"MGISGEONAMX2.106","geometry":{"type":"Point","coordinates":[-72.26353211,42.63257965]},"geometry_name":"the_geom","properties":{"PLACES_":3,"PLACES_ID":6,"X":137372.453,"Y":931614.188,"OFFSETX":0,"OFFSETY":0,"HEIGHT":76.2,"SYMBOL":1,"LEVEL_":1,"TEXT":"NORTH ORANGE","NAME":"NORTH ORANGE","FEATURE":"PPL","COUNTY":25011,"COORD":"423807N0721545W","DATE_":1978,"ELEVATION":840,"SOURCE":"USGS","TILE_NAME":"53"}},{"type":"Feature","id":"MGISGEONAMX2.107","geometry":{"type":"Point","coordinates":[-72.33654048,42.68099469]},"geometry_name":"the_geom","properties":{"PLACES_":4,"PLACES_ID":4,"X":131436.984,"Y":937048.313,"OFFSETX":0,"OFFSETY":0,"HEIGHT":85,"SYMBOL":1,"LEVEL_":1,"TEXT":"W A R W I C K","NAME":"WARWICK","FEATURE":"PPL","COUNTY":25011,"COORD":"","DATE_":1978,"ELEVATION":937,"SOURCE":"USGS","TILE_NAME":"53"}},{"type":"Feature","id":"MGISGEONAMX2.108","geometry":{"type":"Point","coordinates":[-72.31677778,42.69763738]},"geometry_name":"the_geom","properties":{"PLACES_":5,"PLACES_ID":2,"X":133074.391,"Y":938881.313,"OFFSETX":0,"OFFSETY":0,"HEIGHT":55,"SYMBOL":1,"LEVEL_":1,"TEXT":"CAMP\\WARWICK","NAME":"CAMP WARWICK","FEATURE":"PPL","COUNTY":25011,"COORD":"","DATE_":1978,"ELEVATION":1015,"SOURCE":"USGS","TILE_NAME":"53"}},{"type":"Feature","id":"MGISGEONAMX2.109","geometry":{"type":"Point","coordinates":[-72.26891004,42.70038722]},"geometry_name":"the_geom","properties":{"PLACES_":6,"PLACES_ID":1,"X":136999.25,"Y":939150.313,"OFFSETX":0,"OFFSETY":0,"HEIGHT":60,"SYMBOL":1,"LEVEL_":1,"TEXT":"BAPTIST\\CORNERS","NAME":"BAPTIST CORNERS","FEATURE":"PPL","COUNTY":25027,"COORD":"","DATE_":1978,"ELEVATION":1113,"SOURCE":"USGS","TILE_NAME":"53"}},{"type":"Feature","id":"MGISGEONAMX2.110","geometry":{"type":"Point","coordinates":[-70.78934747,42.73720529]},"geometry_name":"the_geom","properties":{"PLACES_":7,"PLACES_ID":1,"X":258193.453,"Y":943198.813,"OFFSETX":0,"OFFSETY":0,"HEIGHT":65,"SYMBOL":1,"LEVEL_":1,"TEXT":"CAMP SEA HAVEN","NAME":"CAMP SEA HAVEN","FEATURE":"PPL","COUNTY":25009,"COORD":"424415N0704720W","DATE_":1978,"ELEVATION":0,"SOURCE":"USGS","TILE_NAME":"147"}},{"type":"Feature","id":"MGISGEONAMX2.111","geometry":{"type":"Point","coordinates":[-70.79420217,42.69559365]},"geometry_name":"the_geom","properties":{"PLACES_":6,"PLACES_ID":2,"X":257834.172,"Y":938573.125,"OFFSETX":0,"OFFSETY":0,"HEIGHT":60,"SYMBOL":1,"LEVEL_":1,"TEXT":"LITTLE NECK","NAME":"LITTLE NECK","FEATURE":"PLACE","COUNTY":25009,"COORD":"414255N0704540W","DATE_":1978,"ELEVATION":80,"SOURCE":"USGS","TILE_NAME":"147"}},{"type":"Feature","id":"MGISGEONAMX2.112","geometry":{"type":"Point","coordinates":[-70.84771611,42.67905346]},"geometry_name":"the_geom","properties":{"PLACES_":2,"PLACES_ID":3,"X":253463.297,"Y":936700.875,"OFFSETX":0,"OFFSETY":0,"HEIGHT":150,"SYMBOL":1,"LEVEL_":2,"TEXT":"IPSWICH","NAME":"IPSWICH","FEATURE":"PPL","COUNTY":25009,"COORD":"424045N0705030W","DATE_":1978,"ELEVATION":50,"SOURCE":"USGS","TILE_NAME":"147"}},{"type":"Feature","id":"MGISGEONAMX2.113","geometry":{"type":"Point","coordinates":[-70.87098893,42.64815829]},"geometry_name":"the_geom","properties":{"PLACES_":3,"PLACES_ID":4,"X":251581.125,"Y":933254.625,"OFFSETX":0,"OFFSETY":0,"HEIGHT":70,"SYMBOL":1,"LEVEL_":1,"TEXT":"NANCYS CORNER","NAME":"NANCYS CORNER","FEATURE":"PPL","COUNTY":25009,"COORD":"423855N0705220W","DATE_":1978,"ELEVATION":68,"SOURCE":"USGS","TILE_NAME":"147"}},{"type":"Feature","id":"MGISGEONAMX2.114","geometry":{"type":"Point","coordinates":[-70.78401949,42.63319758]},"geometry_name":"the_geom","properties":{"PLACES_":4,"PLACES_ID":5,"X":258726.719,"Y":931649,"OFFSETX":0,"OFFSETY":0,"HEIGHT":100,"SYMBOL":1,"LEVEL_":1,"TEXT":"ESSEX","NAME":"ESSEX","FEATURE":"PPL","COUNTY":25009,"COORD":"423755N0704700W","DATE_":1978,"ELEVATION":26,"SOURCE":"USGS","TILE_NAME":"147"}},{"type":"Feature","id":"MGISGEONAMX2.115","geometry":{"type":"Point","coordinates":[-70.7677844,42.62891079]},"geometry_name":"the_geom","properties":{"PLACES_":5,"PLACES_ID":6,"X":260062.422,"Y":931184.125,"OFFSETX":0,"OFFSETY":0,"HEIGHT":100,"SYMBOL":1,"LEVEL_":1,"TEXT":"SOUTH ESSEX","NAME":"SOUTH ESSEX","FEATURE":"PPL","COUNTY":25009,"COORD":"423745N0704610W","DATE_":1978,"ELEVATION":70,"SOURCE":"USGS","TILE_NAME":"147"}},{"type":"Feature","id":"MGISGEONAMX2.116","geometry":{"type":"Point","coordinates":[-72.2479888,42.69554391]},"geometry_name":"the_geom","properties":{"PLACES_":4,"PLACES_ID":1,"X":138708.672,"Y":938597.063,"OFFSETX":0,"OFFSETY":0,"HEIGHT":60,"SYMBOL":1,"LEVEL_":1,"TEXT":"WEST ROYALSTON","NAME":"WEST ROYALSTON","FEATURE":"PPL","COUNTY":25027,"COORD":"424140N0721450W","DATE_":1978,"ELEVATION":901,"SOURCE":"USGS","TILE_NAME":"59"}},{"type":"Feature","id":"MGISGEONAMX2.117","geometry":{"type":"Point","coordinates":[-72.18695138,42.67724743]},"geometry_name":"the_geom","properties":{"PLACES_":5,"PLACES_ID":2,"X":143693.688,"Y":936522.563,"OFFSETX":0,"OFFSETY":0,"HEIGHT":85,"SYMBOL":1,"LEVEL_":1,"TEXT":"ROYALSTON","NAME":"ROYALSTON","FEATURE":"PPL","COUNTY":25027,"COORD":"424039N0721118W","DATE_":1978,"ELEVATION":1015,"SOURCE":"USGS","TILE_NAME":"59"}},{"type":"Feature","id":"MGISGEONAMX2.118","geometry":{"type":"Point","coordinates":[-72.13617371,42.65719905]},"geometry_name":"the_geom","properties":{"PLACES_":8,"PLACES_ID":3,"X":147839.016,"Y":934263.25,"OFFSETX":0,"OFFSETY":0,"HEIGHT":60,"SYMBOL":1,"LEVEL_":1,"TEXT":"NEALE\\PLACE","NAME":"NEALE PLACE","FEATURE":"PPL","COUNTY":25027,"COORD":"","DATE_":1978,"ELEVATION":1067,"SOURCE":"USGS","TILE_NAME":"59"}},{"type":"Feature","id":"MGISGEONAMX2.119","geometry":{"type":"Point","coordinates":[-72.15328635,42.64220412]},"geometry_name":"the_geom","properties":{"PLACES_":6,"PLACES_ID":4,"X":146423.188,"Y":932608.188,"OFFSETX":0,"OFFSETY":0,"HEIGHT":55,"SYMBOL":1,"LEVEL_":1,"TEXT":"CAMP\\CARAVAN","NAME":"CAMP CARAVAN","FEATURE":"PPL","COUNTY":25027,"COORD":"","DATE_":1978,"ELEVATION":1105,"SOURCE":"USGS","TILE_NAME":"59"}},{"type":"Feature","id":"MGISGEONAMX2.120","geometry":{"type":"Point","coordinates":[-72.24754056,42.63870183]},"geometry_name":"the_geom","properties":{"PLACES_":2,"PLACES_ID":5,"X":138690.063,"Y":932282.625,"OFFSETX":0,"OFFSETY":0,"HEIGHT":65,"SYMBOL":1,"LEVEL_":1,"TEXT":"TULLY","NAME":"TULLY","FEATURE":"PPL","COUNTY":25011,"COORD":"423815N0721455W","DATE_":1978,"ELEVATION":588,"SOURCE":"USGS","TILE_NAME":"59"}},{"type":"Feature","id":"MGISGEONAMX2.121","geometry":{"type":"Point","coordinates":[-72.22956738,42.63304788]},"geometry_name":"the_geom","properties":{"PLACES_":3,"PLACES_ID":6,"X":140158.734,"Y":931641.813,"OFFSETX":0,"OFFSETY":0,"HEIGHT":55,"SYMBOL":1,"LEVEL_":1,"TEXT":"PACKARD\\HEIGHTS","NAME":"PACKARD HEIGHTS","FEATURE":"PPL","COUNTY":25011,"COORD":"","DATE_":1978,"ELEVATION":610,"SOURCE":"USGS","TILE_NAME":"59"}},{"type":"Feature","id":"MGISGEONAMX2.122","geometry":{"type":"Point","coordinates":[-72.15154447,42.63149327]},"geometry_name":"the_geom","properties":{"PLACES_":7,"PLACES_ID":7,"X":146556.953,"Y":931417.313,"OFFSETX":0,"OFFSETY":0,"HEIGHT":65,"SYMBOL":1,"LEVEL_":1,"TEXT":"SOUTH ROYALSTON","NAME":"SOUTH ROYALSTON","FEATURE":"PPL","COUNTY":25027,"COORD":"423750N0720852W","DATE_":1978,"ELEVATION":850,"SOURCE":"USGS","TILE_NAME":"59"}},{"type":"Feature","id":"MGISGEONAMX2.123","geometry":{"type":"Point","coordinates":[-72.22446026,42.62828001]},"geometry_name":"the_geom","properties":{"PLACES_":1,"PLACES_ID":8,"X":140573.125,"Y":931108.625,"OFFSETX":0,"OFFSETY":0,"HEIGHT":65,"SYMBOL":1,"LEVEL_":1,"TEXT":"FRYEVILLE","NAME":"FRYEVILLE","FEATURE":"PPL","COUNTY":25027,"COORD":"423740N0721332W","DATE_":1978,"ELEVATION":610,"SOURCE":"USGS","TILE_NAME":"59"}},{"type":"Feature","id":"MGISGEONAMX2.124","geometry":{"type":"Point","coordinates":[-70.90680342,42.74937616]},"geometry_name":"the_geom","properties":{"PLACES_":12,"PLACES_ID":1,"X":248566.063,"Y":944477.313,"OFFSETX":0,"OFFSETY":0,"HEIGHT":65,"SYMBOL":1,"LEVEL_":1,"TEXT":"SOUTH BYFIELD","NAME":"SOUTH BYFIELD","FEATURE":"PPL","COUNTY":25009,"COORD":"424455N0705415W","DATE_":1978,"ELEVATION":70,"SOURCE":"USGS","TILE_NAME":"135"}},{"type":"Feature","id":"MGISGEONAMX2.125","geometry":{"type":"Point","coordinates":[-70.91382101,42.7374212]},"geometry_name":"the_geom","properties":{"PLACES_":11,"PLACES_ID":2,"X":248000.656,"Y":943145.313,"OFFSETX":0,"OFFSETY":0,"HEIGHT":65,"SYMBOL":1,"LEVEL_":1,"TEXT":"GLEN MILLS","NAME":"GLEN MILLS","FEATURE":"PPL","COUNTY":25009,"COORD":"424415N0705460W","DATE_":1978,"ELEVATION":29,"SOURCE":"USGS","TILE_NAME":"135"}},{"type":"Feature","id":"MGISGEONAMX2.126","geometry":{"type":"Point","coordinates":[-70.90183328,42.72721621]},"geometry_name":"the_geom","properties":{"PLACES_":13,"PLACES_ID":3,"X":248990.234,"Y":942018.5,"OFFSETX":0,"OFFSETY":0,"HEIGHT":65,"SYMBOL":1,"LEVEL_":1,"TEXT":"DOLES CORNER","NAME":"DOLES CORNER","FEATURE":"PLACE","COUNTY":0,"COORD":"","DATE_":1999,"ELEVATION":0,"SOURCE":"DEP","TILE_NAME":"135"}},{"type":"Feature","id":"MGISGEONAMX2.127","geometry":{"type":"Point","coordinates":[-70.99477393,42.72476415]},"geometry_name":"the_geom","properties":{"PLACES_":16,"PLACES_ID":4,"X":241380.047,"Y":941696.875,"OFFSETX":0,"OFFSETY":0,"HEIGHT":85,"SYMBOL":1,"LEVEL_":1,"TEXT":"G E O R G E T O W N","NAME":"GEORGETOWN","FEATURE":"PPL","COUNTY":25009,"COORD":"","DATE_":1978,"ELEVATION":79,"SOURCE":"USGS","TILE_NAME":"135"}},{"type":"Feature","id":"MGISGEONAMX2.128","geometry":{"type":"Point","coordinates":[-70.8877985,42.71733837]},"geometry_name":"the_geom","properties":{"PLACES_":9,"PLACES_ID":5,"X":250147.547,"Y":940929.375,"OFFSETX":0,"OFFSETY":0,"HEIGHT":85,"SYMBOL":1,"LEVEL_":1,"TEXT":"R O W L E Y","NAME":"ROWLEY","FEATURE":"PPL","COUNTY":25009,"COORD":"","DATE_":1978,"ELEVATION":50,"SOURCE":"USGS","TILE_NAME":"135"}},{"type":"Feature","id":"MGISGEONAMX2.129","geometry":{"type":"Point","coordinates":[-70.97088299,42.71640529]},"geometry_name":"the_geom","properties":{"PLACES_":15,"PLACES_ID":6,"X":243342.547,"Y":940780.188,"OFFSETX":0,"OFFSETY":0,"HEIGHT":65,"SYMBOL":1,"LEVEL_":1,"TEXT":"MARLBORO","NAME":"MARLBORO","FEATURE":"PPL","COUNTY":25009,"COORD":"424300N0705825W","DATE_":1978,"ELEVATION":90,"SOURCE":"USGS","TILE_NAME":"135"}},{"type":"Feature","id":"MGISGEONAMX2.130","geometry":{"type":"Point","coordinates":[-70.99715835,42.70830699]},"geometry_name":"the_geom","properties":{"PLACES_":14,"PLACES_ID":7,"X":241195.531,"Y":939867.563,"OFFSETX":0,"OFFSETY":0,"HEIGHT":65,"SYMBOL":1,"LEVEL_":1,"TEXT":"SOUTH\\GEORGETOWN","NAME":"SOUTH GEORGETOWN","FEATURE":"PPL","COUNTY":25009,"COORD":"","DATE_":1978,"ELEVATION":102,"SOURCE":"USGS","TILE_NAME":"135"}},{"type":"Feature","id":"MGISGEONAMX2.131","geometry":{"type":"Point","coordinates":[-70.90901526,42.70423868]},"geometry_name":"the_geom","properties":{"PLACES_":8,"PLACES_ID":8,"X":248419.719,"Y":939461.938,"OFFSETX":0,"OFFSETY":0,"HEIGHT":65,"SYMBOL":1,"LEVEL_":1,"TEXT":"KENT CORNER","NAME":"KENT CORNER","FEATURE":"PPL","COUNTY":25009,"COORD":"424220N0705435W","DATE_":1978,"ELEVATION":64,"SOURCE":"USGS","TILE_NAME":"135"}},{"type":"Feature","id":"MGISGEONAMX2.132","geometry":{"type":"Point","coordinates":[-70.95043699,42.70222898]},"geometry_name":"the_geom","properties":{"PLACES_":10,"PLACES_ID":9,"X":245027.5,"Y":939216,"OFFSETX":0,"OFFSETY":0,"HEIGHT":60,"SYMBOL":1,"LEVEL_":1,"TEXT":"ROOTY PLAIN","NAME":"ROOTY PLAIN","FEATURE":"PPL","COUNTY":25009,"COORD":"424210N0705705W","DATE_":1978,"ELEVATION":72,"SOURCE":"USGS","TILE_NAME":"135"}},{"type":"Feature","id":"MGISGEONAMX2.133","geometry":{"type":"Point","coordinates":[-70.89838591,42.68861854]},"geometry_name":"the_geom","properties":{"PLACES_":7,"PLACES_ID":10,"X":249302.813,"Y":937732.875,"OFFSETX":0,"OFFSETY":0,"HEIGHT":60,"SYMBOL":1,"LEVEL_":1,"TEXT":"PINEFIELD","NAME":"PINEFIELD","FEATURE":"PPL","COUNTY":25009,"COORD":"424120N0705410W","DATE_":1978,"ELEVATION":130,"SOURCE":"USGS","TILE_NAME":"135"}},{"type":"Feature","id":"MGISGEONAMX2.134","geometry":{"type":"Point","coordinates":[-70.98156355,42.68866529]},"geometry_name":"the_geom","properties":{"PLACES_":5,"PLACES_ID":11,"X":242486.391,"Y":937693.313,"OFFSETX":0,"OFFSETY":0,"HEIGHT":60,"SYMBOL":1,"LEVEL_":1,"TEXT":"KINGS\\FOREST","NAME":"KINGS FOREST","FEATURE":"PPL","COUNTY":25009,"COORD":"","DATE_":1978,"ELEVATION":150,"SOURCE":"USGS","TILE_NAME":"135"}},{"type":"Feature","id":"MGISGEONAMX2.135","geometry":{"type":"Point","coordinates":[-70.92788863,42.68079518]},"geometry_name":"the_geom","properties":{"PLACES_":6,"PLACES_ID":12,"X":246890.906,"Y":936847.188,"OFFSETX":0,"OFFSETY":0,"HEIGHT":60,"SYMBOL":1,"LEVEL_":1,"TEXT":"LINEBROOK","NAME":"LINEBROOK","FEATURE":"PPL","COUNTY":25009,"COORD":"424048N0705545W","DATE_":1978,"ELEVATION":70,"SOURCE":"USGS","TILE_NAME":"135"}},{"type":"Feature","id":"MGISGEONAMX2.136","geometry":{"type":"Point","coordinates":[-70.98153275,42.67185363]},"geometry_name":"the_geom","properties":{"PLACES_":4,"PLACES_ID":13,"X":242500.266,"Y":935825.813,"OFFSETX":0,"OFFSETY":0,"HEIGHT":65,"SYMBOL":1,"LEVEL_":1,"TEXT":"EAST\\BOXFORD","NAME":"EAST BOXFORD","FEATURE":"PPL","COUNTY":25009,"COORD":"","DATE_":1978,"ELEVATION":103,"SOURCE":"USGS","TILE_NAME":"135"}},{"type":"Feature","id":"MGISGEONAMX2.137","geometry":{"type":"Point","coordinates":[-70.99682956,42.65875832]},"geometry_name":"the_geom","properties":{"PLACES_":3,"PLACES_ID":14,"X":241254.938,"Y":934363.625,"OFFSETX":0,"OFFSETY":0,"HEIGHT":85,"SYMBOL":1,"LEVEL_":1,"TEXT":"B O X F O R D","NAME":"BOXFORD","FEATURE":"PPL","COUNTY":25009,"COORD":"","DATE_":1978,"ELEVATION":95,"SOURCE":"USGS","TILE_NAME":"135"}},{"type":"Feature","id":"MGISGEONAMX2.138","geometry":{"type":"Point","coordinates":[-70.97219225,42.64141979]},"geometry_name":"the_geom","properties":{"PLACES_":1,"PLACES_ID":15,"X":243286.844,"Y":932449.813,"OFFSETX":0,"OFFSETY":0,"HEIGHT":65,"SYMBOL":1,"LEVEL_":1,"TEXT":"KINSMAN\\CORNER","NAME":"KINSMAN CORNER","FEATURE":"PPL","COUNTY":25009,"COORD":"","DATE_":1978,"ELEVATION":60,"SOURCE":"USGS","TILE_NAME":"135"}},{"type":"Feature","id":"MGISGEONAMX2.139","geometry":{"type":"Point","coordinates":[-70.96034241,42.63756664]},"geometry_name":"the_geom","properties":{"PLACES_":2,"PLACES_ID":16,"X":244261.375,"Y":932027.875,"OFFSETX":0,"OFFSETY":0,"HEIGHT":85,"SYMBOL":1,"LEVEL_":1,"TEXT":"T O P S F I E L D","NAME":"TOPSFIELD","FEATURE":"PPL","COUNTY":25009,"COORD":"","DATE_":1978,"ELEVATION":63,"SOURCE":"USGS","TILE_NAME":"135"}},{"type":"Feature","id":"MGISGEONAMX2.140","geometry":{"type":"Point","coordinates":[-72.09235261,42.70991709]},"geometry_name":"the_geom","properties":{"PLACES_":1,"PLACES_ID":1,"X":151472.594,"Y":940093.5,"OFFSETX":0,"OFFSETY":0,"HEIGHT":76.2,"SYMBOL":1,"LEVEL_":1,"TEXT":"HARRISVILLE","NAME":"HARRISVILLE","FEATURE":"PPL","COUNTY":25027,"COORD":"424237N0720507W","DATE_":1978,"ELEVATION":891,"SOURCE":"USGS","TILE_NAME":"65"}},{"type":"Feature","id":"MGISGEONAMX2.141","geometry":{"type":"Point","coordinates":[-72.09467661,42.69774775]},"geometry_name":"the_geom","properties":{"PLACES_":2,"PLACES_ID":2,"X":151272.781,"Y":938743,"OFFSETX":0,"OFFSETY":0,"HEIGHT":65,"SYMBOL":1,"LEVEL_":1,"TEXT":"BULLARDVILLE","NAME":"BULLARDVILLE","FEATURE":"PPL","COUNTY":25027,"COORD":"424153N0720507W","DATE_":1978,"ELEVATION":860,"SOURCE":"USGS","TILE_NAME":"65"}},{"type":"Feature","id":"MGISGEONAMX2.142","geometry":{"type":"Point","coordinates":[-72.02568545,42.69511523]},"geometry_name":"the_geom","properties":{"PLACES_":4,"PLACES_ID":3,"X":156923.969,"Y":938413.438,"OFFSETX":0,"OFFSETY":0,"HEIGHT":60,"SYMBOL":1,"LEVEL_":1,"TEXT":"WINCHENDON SPRINGS","NAME":"WINCHENDON SPRINGS","FEATURE":"PPL","COUNTY":25027,"COORD":"","DATE_":1978,"ELEVATION":1019,"SOURCE":"USGS","TILE_NAME":"65"}},{"type":"Feature","id":"MGISGEONAMX2.143","geometry":{"type":"Point","coordinates":[-72.05232703,42.68573512]},"geometry_name":"the_geom","properties":{"PLACES_":3,"PLACES_ID":4,"X":154734.172,"Y":937385.25,"OFFSETX":0,"OFFSETY":0,"HEIGHT":100,"SYMBOL":1,"LEVEL_":1,"TEXT":"W I N C H E N D O N","NAME":"WINCHENDON","FEATURE":"PPL","COUNTY":25027,"COORD":"","DATE_":1978,"ELEVATION":1000,"SOURCE":"USGS","TILE_NAME":"65"}},{"type":"Feature","id":"MGISGEONAMX2.144","geometry":{"type":"Point","coordinates":[-72.07142917,42.68206392]},"geometry_name":"the_geom","properties":{"PLACES_":7,"PLACES_ID":5,"X":153165.953,"Y":936987.75,"OFFSETX":0,"OFFSETY":0,"HEIGHT":65,"SYMBOL":1,"LEVEL_":1,"TEXT":"HYDEVILLE","NAME":"HYDEVILLE","FEATURE":"PPL","COUNTY":25027,"COORD":"424058N0720420W","DATE_":1978,"ELEVATION":890,"SOURCE":"USGS","TILE_NAME":"65"}},{"type":"Feature","id":"MGISGEONAMX2.145","geometry":{"type":"Point","coordinates":[-72.06816168,42.67393304]},"geometry_name":"the_geom","properties":{"PLACES_":5,"PLACES_ID":6,"X":153427.734,"Y":936082.75,"OFFSETX":0,"OFFSETY":0,"HEIGHT":65,"SYMBOL":1,"LEVEL_":1,"TEXT":"WATERVILLE","NAME":"WATERVILLE","FEATURE":"PPL","COUNTY":25027,"COORD":"414580N0705029W","DATE_":1978,"ELEVATION":910,"SOURCE":"USGS","TILE_NAME":"65"}},{"type":"Feature","id":"MGISGEONAMX2.146","geometry":{"type":"Point","coordinates":[-72.0401628,42.66112828]},"geometry_name":"the_geom","properties":{"PLACES_":6,"PLACES_ID":7,"X":155713.766,"Y":934645.438,"OFFSETX":0,"OFFSETY":0,"HEIGHT":65,"SYMBOL":1,"LEVEL_":1,"TEXT":"WINCHENDON\\CENTER","NAME":"WINCHENDON CENTER","FEATURE":"PPL","COUNTY":25027,"COORD":"","DATE_":1978,"ELEVATION":1230,"SOURCE":"USGS","TILE_NAME":"65"}},{"type":"Feature","id":"MGISGEONAMX2.147","geometry":{"type":"Point","coordinates":[-72.10585151,42.65044598]},"geometry_name":"the_geom","properties":{"PLACES_":8,"PLACES_ID":8,"X":150319.813,"Y":933495,"OFFSETX":0,"OFFSETY":0,"HEIGHT":65,"SYMBOL":1,"LEVEL_":1,"TEXT":"NEW BOSTON","NAME":"NEW BOSTON","FEATURE":"PPL","COUNTY":25027,"COORD":"420537N0730435W","DATE_":1978,"ELEVATION":800,"SOURCE":"USGS","TILE_NAME":"65"}},{"type":"Feature","id":"MGISGEONAMX2.148","geometry":{"type":"Point","coordinates":[-71.10916708,42.74291227]},"geometry_name":"the_geom","properties":{"PLACES_":1,"PLACES_ID":1,"X":232001.625,"Y":943663.688,"OFFSETX":0,"OFFSETY":0,"HEIGHT":65,"SYMBOL":1,"LEVEL_":1,"TEXT":"WARD HILL","NAME":"WARD HILL","FEATURE":"PLACE","COUNTY":0,"COORD":"","DATE_":1999,"ELEVATION":0,"SOURCE":"DEP","TILE_NAME":"123"}},{"type":"Feature","id":"MGISGEONAMX2.149","geometry":{"type":"Point","coordinates":[-71.04633798,42.74003083]},"geometry_name":"the_geom","properties":{"PLACES_":2,"PLACES_ID":2,"X":237147.766,"Y":943369.063,"OFFSETX":0,"OFFSETY":0,"HEIGHT":65,"SYMBOL":1,"LEVEL_":1,"TEXT":"SOUTH   GROVELAND","NAME":"SOUTH   GROVELAND","FEATURE":"PLACE","COUNTY":0,"COORD":"","DATE_":1999,"ELEVATION":0,"SOURCE":"DEP","TILE_NAME":"123"}},{"type":"Feature","id":"MGISGEONAMX2.150","geometry":{"type":"Point","coordinates":[-71.0624966,42.70622025]},"geometry_name":"the_geom","properties":{"PLACES_":3,"PLACES_ID":3,"X":235843.906,"Y":939606.25,"OFFSETX":0,"OFFSETY":0,"HEIGHT":85,"SYMBOL":1,"LEVEL_":1,"TEXT":"WEST   BOXFORD","NAME":"WEST   BOXFORD","FEATURE":"PLACE","COUNTY":0,"COORD":"","DATE_":1999,"ELEVATION":0,"SOURCE":"DEP","TILE_NAME":"123"}},{"type":"Feature","id":"MGISGEONAMX2.151","geometry":{"type":"Point","coordinates":[-71.1108744,42.68347055]},"geometry_name":"the_geom","properties":{"PLACES_":7,"PLACES_ID":4,"X":231891.953,"Y":937059.875,"OFFSETX":0,"OFFSETY":0,"HEIGHT":60,"SYMBOL":1,"LEVEL_":1,"TEXT":"NORTH ANDOVER\\CENTER","NAME":"NORTH ANDOVER CENTER","FEATURE":"PPL","COUNTY":25009,"COORD":"","DATE_":1978,"ELEVATION":220,"SOURCE":"USGS","TILE_NAME":"123"}},{"type":"Feature","id":"MGISGEONAMX2.152","geometry":{"type":"Point","coordinates":[-71.09714825,42.67737807]},"geometry_name":"the_geom","properties":{"PLACES_":6,"PLACES_ID":5,"X":233020.109,"Y":936388.313,"OFFSETX":0,"OFFSETY":0,"HEIGHT":60,"SYMBOL":1,"LEVEL_":1,"TEXT":"MARBLE RIDGE\\STATION","NAME":"MARBLE RIDGE STATION","FEATURE":"PPL","COUNTY":25009,"COORD":"","DATE_":1999,"ELEVATION":199,"SOURCE":"USGS","TILE_NAME":"123"}},{"type":"Feature","id":"MGISGEONAMX2.153","geometry":{"type":"Point","coordinates":[-71.01737631,42.66343256]},"geometry_name":"the_geom","properties":{"PLACES_":4,"PLACES_ID":6,"X":239567.391,"Y":934873.125,"OFFSETX":0,"OFFSETY":0,"HEIGHT":60,"SYMBOL":1,"LEVEL_":1,"TEXT":"EAST PARISH","NAME":"EAST PARISH","FEATURE":"PPL","COUNTY":25009,"COORD":"423950N0710100W","DATE_":1999,"ELEVATION":110,"SOURCE":"USGS","TILE_NAME":"123"}},{"type":"Feature","id":"MGISGEONAMX2.154","geometry":{"type":"Point","coordinates":[-71.06612725,42.6439527]},"geometry_name":"the_geom","properties":{"PLACES_":5,"PLACES_ID":7,"X":235581.641,"Y":932687.75,"OFFSETX":0,"OFFSETY":0,"HEIGHT":65,"SYMBOL":1,"LEVEL_":1,"TEXT":"BOXFORD STATION","NAME":"BOXFORD STATION","FEATURE":"PPL","COUNTY":25009,"COORD":"423844N0710330W","DATE_":1999,"ELEVATION":104,"SOURCE":"USGS","TILE_NAME":"123"}},{"type":"Feature","id":"MGISGEONAMX2.155","geometry":{"type":"Point","coordinates":[-71.94156566,42.67423614]},"geometry_name":"the_geom","properties":{"PLACES_":1,"PLACES_ID":1,"X":163804.891,"Y":936055,"OFFSETX":0,"OFFSETY":0,"HEIGHT":65,"SYMBOL":1,"LEVEL_":1,"TEXT":"NORTH\\ASHBURNHAM","NAME":"NORTH ASHBURNHAM","FEATURE":"PPL","COUNTY":25027,"COORD":"","DATE_":1978,"ELEVATION":1129,"SOURCE":"USGS","TILE_NAME":"71"}},{"type":"Feature","id":"MGISGEONAMX2.156","geometry":{"type":"Point","coordinates":[-71.93963125,42.66012814]},"geometry_name":"the_geom","properties":{"PLACES_":5,"PLACES_ID":2,"X":163955.375,"Y":934487,"OFFSETX":0,"OFFSETY":0,"HEIGHT":60,"SYMBOL":1,"LEVEL_":1,"TEXT":"LANE\\VILLAGE","NAME":"LANE VILLAGE","FEATURE":"PPL","COUNTY":25027,"COORD":"","DATE_":1978,"ELEVATION":1140,"SOURCE":"USGS","TILE_NAME":"71"}},{"type":"Feature","id":"MGISGEONAMX2.157","geometry":{"type":"Point","coordinates":[-71.91285332,42.66005811]},"geometry_name":"the_geom","properties":{"PLACES_":2,"PLACES_ID":3,"X":166150.797,"Y":934468.25,"OFFSETX":0,"OFFSETY":0,"HEIGHT":65,"SYMBOL":1,"LEVEL_":1,"TEXT":"WELLVILLE","NAME":"WELLVILLE","FEATURE":"PPL","COUNTY":25027,"COORD":"423937N0715422W","DATE_":1978,"ELEVATION":1150,"SOURCE":"USGS","TILE_NAME":"71"}},{"type":"Feature","id":"MGISGEONAMX2.158","geometry":{"type":"Point","coordinates":[-71.98150385,42.6555648]},"geometry_name":"the_geom","properties":{"PLACES_":6,"PLACES_ID":4,"X":160519.484,"Y":933998.625,"OFFSETX":0,"OFFSETY":0,"HEIGHT":60,"SYMBOL":1,"LEVEL_":1,"TEXT":"OLD NORTH\\ASHBURNHAM STATION","NAME":"OLD NORTH ASHBURNHAM STATION","FEATURE":"PPL","COUNTY":25027,"COORD":"","DATE_":1978,"ELEVATION":1040,"SOURCE":"USGS","TILE_NAME":"71"}},{"type":"Feature","id":"MGISGEONAMX2.159","geometry":{"type":"Point","coordinates":[-71.90910268,42.6380836]},"geometry_name":"the_geom","properties":{"PLACES_":4,"PLACES_ID":5,"X":166446.594,"Y":932025.75,"OFFSETX":0,"OFFSETY":0,"HEIGHT":90,"SYMBOL":1,"LEVEL_":1,"TEXT":"A S H B U R N H A M","NAME":"A S H B U R N H A M","FEATURE":"PLACE","COUNTY":0,"COORD":"","DATE_":1999,"ELEVATION":0,"SOURCE":"DEP","TILE_NAME":"71"}},{"type":"Feature","id":"MGISGEONAMX2.160","geometry":{"type":"Point","coordinates":[-71.8820906,42.6266527]},"geometry_name":"the_geom","properties":{"PLACES_":3,"PLACES_ID":6,"X":168656.344,"Y":930745.688,"OFFSETX":0,"OFFSETY":0,"HEIGHT":60,"SYMBOL":1,"LEVEL_":1,"TEXT":"BLACKBURN\\VILLAGE","NAME":"BLACKBURN VILLAGE","FEATURE":"PPL","COUNTY":25027,"COORD":"","DATE_":1978,"ELEVATION":862,"SOURCE":"USGS","TILE_NAME":"71"}},{"type":"Feature","id":"MGISGEONAMX2.161","geometry":{"type":"Point","coordinates":[-71.16618515,42.74041725]},"geometry_name":"the_geom","properties":{"PLACES_":3,"PLACES_ID":1,"X":227334.063,"Y":943366.688,"OFFSETX":0,"OFFSETY":0,"HEIGHT":60,"SYMBOL":1,"LEVEL_":1,"TEXT":"MARSTON\\CORNER","NAME":"MARSTON CORNER","FEATURE":"PLACE","COUNTY":0,"COORD":"","DATE_":1999,"ELEVATION":0,"SOURCE":"DEP","TILE_NAME":"112"}},{"type":"Feature","id":"MGISGEONAMX2.162","geometry":{"type":"Point","coordinates":[-71.23202564,42.72817486]},"geometry_name":"the_geom","properties":{"PLACES_":4,"PLACES_ID":2,"X":221947.078,"Y":941987.688,"OFFSETX":0,"OFFSETY":0,"HEIGHT":60,"SYMBOL":1,"LEVEL_":1,"TEXT":"MARSH CORNER","NAME":"MARSH CORNER","FEATURE":"PPL","COUNTY":25009,"COORD":"424340N0711355W","DATE_":1978,"ELEVATION":186,"SOURCE":"USGS","TILE_NAME":"112"}},{"type":"Feature","id":"MGISGEONAMX2.163","geometry":{"type":"Point","coordinates":[-71.19744307,42.72088636]},"geometry_name":"the_geom","properties":{"PLACES_":5,"PLACES_ID":3,"X":224782.25,"Y":941187.5,"OFFSETX":0,"OFFSETY":0,"HEIGHT":100,"SYMBOL":1,"LEVEL_":1,"TEXT":"M E T H U E N","NAME":"METHUEN","FEATURE":"PPL","COUNTY":25009,"COORD":"","DATE_":1978,"ELEVATION":115,"SOURCE":"USGS","TILE_NAME":"112"}},{"type":"Feature","id":"MGISGEONAMX2.164","geometry":{"type":"Point","coordinates":[-71.16689094,42.70819742]},"geometry_name":"the_geom","properties":{"PLACES_":6,"PLACES_ID":4,"X":227290.25,"Y":939787.25,"OFFSETX":0,"OFFSETY":0,"HEIGHT":100,"SYMBOL":1,"LEVEL_":1,"TEXT":"L A W R E N C E","NAME":"LAWRENCE","FEATURE":"PPL","COUNTY":25009,"COORD":"","DATE_":1978,"ELEVATION":50,"SOURCE":"USGS","TILE_NAME":"112"}},{"type":"Feature","id":"MGISGEONAMX2.165","geometry":{"type":"Point","coordinates":[-71.13277258,42.7072575]},"geometry_name":"the_geom","properties":{"PLACES_":8,"PLACES_ID":5,"X":230085.859,"Y":939694.313,"OFFSETX":0,"OFFSETY":0,"HEIGHT":60,"SYMBOL":1,"LEVEL_":1,"TEXT":"SUTTONS MILLS","NAME":"SUTTONS MILLS","FEATURE":"PPL","COUNTY":25007,"COORD":"424225N0710800W","DATE_":1999,"ELEVATION":95,"SOURCE":"USGS","TILE_NAME":"112"}},{"type":"Feature","id":"MGISGEONAMX2.166","geometry":{"type":"Point","coordinates":[-71.1389135,42.69719963]},"geometry_name":"the_geom","properties":{"PLACES_":7,"PLACES_ID":6,"X":229587.484,"Y":938574.875,"OFFSETX":0,"OFFSETY":0,"HEIGHT":100,"SYMBOL":1,"LEVEL_":1,"TEXT":"NORTH ANDOVER","NAME":"NORTH ANDOVER","FEATURE":"PPL","COUNTY":25009,"COORD":"424155N0710808W","DATE_":1978,"ELEVATION":75,"SOURCE":"USGS","TILE_NAME":"112"}},{"type":"Feature","id":"MGISGEONAMX2.167","geometry":{"type":"Point","coordinates":[-71.14923304,42.6719868]},"geometry_name":"the_geom","properties":{"PLACES_":1,"PLACES_ID":7,"X":228753.422,"Y":935770.563,"OFFSETX":0,"OFFSETY":0,"HEIGHT":65,"SYMBOL":1,"LEVEL_":1,"TEXT":"SHAWSHEEN VILLAGE","NAME":"SHAWSHEEN VILLAGE","FEATURE":"PPL","COUNTY":25009,"COORD":"424020N0710840W","DATE_":1978,"ELEVATION":93,"SOURCE":"USGS","TILE_NAME":"112"}},{"type":"Feature","id":"MGISGEONAMX2.168","geometry":{"type":"Point","coordinates":[-71.19023171,42.66225733]},"geometry_name":"the_geom","properties":{"PLACES_":2,"PLACES_ID":8,"X":225396.578,"Y":934676.75,"OFFSETX":0,"OFFSETY":0,"HEIGHT":65,"SYMBOL":1,"LEVEL_":1,"TEXT":"WEST PARISH","NAME":"WEST PARISH","FEATURE":"PPL","COUNTY":25009,"COORD":"423945N0711115W","DATE_":1978,"ELEVATION":150,"SOURCE":"USGS","TILE_NAME":"112"}},{"type":"Feature","id":"MGISGEONAMX2.169","geometry":{"type":"Point","coordinates":[-71.16167043,42.66108014]},"geometry_name":"the_geom","properties":{"PLACES_":10,"PLACES_ID":9,"X":227738.703,"Y":934554.875,"OFFSETX":0,"OFFSETY":0,"HEIGHT":65,"SYMBOL":1,"LEVEL_":1,"TEXT":"WEST\\ANDOVER","NAME":"WEST ANDOVER","FEATURE":"PPL","COUNTY":25009,"COORD":"","DATE_":1978,"ELEVATION":150,"SOURCE":"USGS","TILE_NAME":"112"}},{"type":"Feature","id":"MGISGEONAMX2.170","geometry":{"type":"Point","coordinates":[-71.14111842,42.65725129]},"geometry_name":"the_geom","properties":{"PLACES_":9,"PLACES_ID":10,"X":229425.484,"Y":934136.438,"OFFSETX":0,"OFFSETY":0,"HEIGHT":100,"SYMBOL":1,"LEVEL_":1,"TEXT":"A N D O V E R","NAME":"ANDOVER","FEATURE":"PPL","COUNTY":25009,"COORD":"","DATE_":1978,"ELEVATION":0,"SOURCE":"USGS","TILE_NAME":"112"}},{"type":"Feature","id":"MGISGEONAMX2.171","geometry":{"type":"Point","coordinates":[-71.24108884,42.63584645]},"geometry_name":"the_geom","properties":{"PLACES_":12,"PLACES_ID":11,"X":221235.938,"Y":931729,"OFFSETX":0,"OFFSETY":0,"HEIGHT":65,"SYMBOL":1,"LEVEL_":1,"TEXT":"NORTH TEWKSBURY","NAME":"NORTH TEWKSBURY","FEATURE":"PPL","COUNTY":25017,"COORD":"423804N0711447W","DATE_":1978,"ELEVATION":246,"SOURCE":"USGS","TILE_NAME":"112"}},{"type":"Feature","id":"MGISGEONAMX2.172","geometry":{"type":"Point","coordinates":[-71.15650418,42.62615221]},"geometry_name":"the_geom","properties":{"PLACES_":11,"PLACES_ID":12,"X":228177.891,"Y":930676.625,"OFFSETX":0,"OFFSETY":0,"HEIGHT":65,"SYMBOL":1,"LEVEL_":1,"TEXT":"BALLARDVALE","NAME":"BALLARDVALE","FEATURE":"PPL","COUNTY":25009,"COORD":"423730N0710940W","DATE_":1970,"ELEVATION":80,"SOURCE":"DEP","TILE_NAME":"112"}},{"type":"Feature","id":"MGISGEONAMX2.173","geometry":{"type":"Point","coordinates":[-71.821466,42.67941152]},"geometry_name":"the_geom","properties":{"PLACES_":1,"PLACES_ID":1,"X":173651.563,"Y":936585.875,"OFFSETX":0,"OFFSETY":0,"HEIGHT":120,"SYMBOL":1,"LEVEL_":1,"TEXT":"A S H B Y","NAME":"ASHBY","FEATURE":"PPL","COUNTY":25017,"COORD":"","DATE_":1978,"ELEVATION":904,"SOURCE":"USGS","TILE_NAME":"77"}},{"type":"Feature","id":"MGISGEONAMX2.174","geometry":{"type":"Point","coordinates":[-71.83121135,42.66573402]},"geometry_name":"the_geom","properties":{"PLACES_":2,"PLACES_ID":2,"X":172846.906,"Y":935069.563,"OFFSETX":0,"OFFSETY":0,"HEIGHT":65,"SYMBOL":1,"LEVEL_":1,"TEXT":"SOUTH VILLAGE","NAME":"SOUTH VILLAGE","FEATURE":"PPL","COUNTY":25017,"COORD":"424000N0714930W","DATE_":1978,"ELEVATION":900,"SOURCE":"USGS","TILE_NAME":"77"}},{"type":"Feature","id":"MGISGEONAMX2.175","geometry":{"type":"Point","coordinates":[-71.3648868,42.69340909]},"geometry_name":"the_geom","properties":{"PLACES_":7,"PLACES_ID":1,"X":211071.891,"Y":938099.938,"OFFSETX":0,"OFFSETY":0,"HEIGHT":65,"SYMBOL":1,"LEVEL_":1,"TEXT":"LONG POND PARK","NAME":"LONG POND PARK","FEATURE":"PPL","COUNTY":25017,"COORD":"424145N0712150W","DATE_":1978,"ELEVATION":250,"SOURCE":"USGS","TILE_NAME":"102"}},{"type":"Feature","id":"MGISGEONAMX2.176","geometry":{"type":"Point","coordinates":[-71.35493741,42.68552423]},"geometry_name":"the_geom","properties":{"PLACES_":6,"PLACES_ID":2,"X":211888.688,"Y":937225.375,"OFFSETX":0,"OFFSETY":0,"HEIGHT":65,"SYMBOL":1,"LEVEL_":1,"TEXT":"COLLINSVILLE","NAME":"COLLINSVILLE","FEATURE":"PPL","COUNTY":25017,"COORD":"424100N0712110W","DATE_":1978,"ELEVATION":144,"SOURCE":"USGS","TILE_NAME":"102"}},{"type":"Feature","id":"MGISGEONAMX2.177","geometry":{"type":"Point","coordinates":[-71.3041106,42.67002882]},"geometry_name":"the_geom","properties":{"PLACES_":5,"PLACES_ID":3,"X":216058.172,"Y":935512.375,"OFFSETX":0,"OFFSETY":0,"HEIGHT":100,"SYMBOL":1,"LEVEL_":1,"TEXT":"D R A C U T","NAME":"DRACUT","FEATURE":"PPL","COUNTY":25017,"COORD":"","DATE_":1978,"ELEVATION":156,"SOURCE":"USGS","TILE_NAME":"102"}},{"type":"Feature","id":"MGISGEONAMX2.178","geometry":{"type":"Point","coordinates":[-71.26328986,42.66204244]},"geometry_name":"the_geom","properties":{"PLACES_":4,"PLACES_ID":4,"X":219406.938,"Y":934633.688,"OFFSETX":0,"OFFSETY":0,"HEIGHT":65,"SYMBOL":1,"LEVEL_":1,"TEXT":"KENWOOD","NAME":"KENWOOD","FEATURE":"PPL","COUNTY":25017,"COORD":"423940N0711550W","DATE_":1978,"ELEVATION":70,"SOURCE":"USGS","TILE_NAME":"102"}},{"type":"Feature","id":"MGISGEONAMX2.179","geometry":{"type":"Point","coordinates":[-71.33354068,42.65814329]},"geometry_name":"the_geom","properties":{"PLACES_":3,"PLACES_ID":5,"X":213648.203,"Y":934186.938,"OFFSETX":0,"OFFSETY":0,"HEIGHT":65,"SYMBOL":1,"LEVEL_":1,"TEXT":"PAWTUCKETVILLE","NAME":"PAWTUCKETVILLE","FEATURE":"PPL-SUBDVSN","COUNTY":25017,"COORD":"423930N0711950W","DATE_":1978,"ELEVATION":150,"SOURCE":"USGS","TILE_NAME":"102"}},{"type":"Feature","id":"MGISGEONAMX2.180","geometry":{"type":"Point","coordinates":[-71.3079947,42.65536591]},"geometry_name":"the_geom","properties":{"PLACES_":2,"PLACES_ID":6,"X":215743.438,"Y":933882.813,"OFFSETX":0,"OFFSETY":0,"HEIGHT":65,"SYMBOL":1,"LEVEL_":1,"TEXT":"CENTRALVILLE","NAME":"CENTRALVILLE","FEATURE":"PPL-SUBDVSN","COUNTY":25017,"COORD":"423920N0711820W","DATE_":1978,"ELEVATION":106,"SOURCE":"USGS","TILE_NAME":"102"}},{"type":"Feature","id":"MGISGEONAMX2.181","geometry":{"type":"Point","coordinates":[-71.29186964,42.63869813]},"geometry_name":"the_geom","properties":{"PLACES_":1,"PLACES_ID":7,"X":217070.125,"Y":932034.375,"OFFSETX":0,"OFFSETY":0,"HEIGHT":65,"SYMBOL":1,"LEVEL_":1,"TEXT":"BELVIDERE","NAME":"BELVIDERE","FEATURE":"PPL-SUBDVSN","COUNTY":25017,"COORD":"423820N0711725W","DATE_":1978,"ELEVATION":200,"SOURCE":"USGS","TILE_NAME":"102"}},{"type":"Feature","id":"MGISGEONAMX2.182","geometry":{"type":"Point","coordinates":[-71.33221834,42.63552864]},"geometry_name":"the_geom","properties":{"PLACES_":9,"PLACES_ID":8,"X":213761.563,"Y":931675,"OFFSETX":0,"OFFSETY":0,"HEIGHT":110,"SYMBOL":1,"LEVEL_":1,"TEXT":"L O W E L L","NAME":"LOWELL","FEATURE":"PPL","COUNTY":25017,"COORD":"","DATE_":1931,"ELEVATION":102,"SOURCE":"USGS","TILE_NAME":"102"}},{"type":"Feature","id":"MGISGEONAMX2.183","geometry":{"type":"Point","coordinates":[-71.28672048,42.63314061]},"geometry_name":"the_geom","properties":{"PLACES_":11,"PLACES_ID":9,"X":217493.984,"Y":931418.063,"OFFSETX":0,"OFFSETY":0,"HEIGHT":65,"SYMBOL":1,"LEVEL_":1,"TEXT":"OAKLANDS","NAME":"OAKLANDS","FEATURE":"PPL-SUBDVSN","COUNTY":25017,"COORD":"423800N0711710W","DATE_":1978,"ELEVATION":155,"SOURCE":"USGS","TILE_NAME":"102"}},{"type":"Feature","id":"MGISGEONAMX2.184","geometry":{"type":"Point","coordinates":[-71.3397836,42.62935602]},"geometry_name":"the_geom","properties":{"PLACES_":8,"PLACES_ID":10,"X":213142.344,"Y":930988.125,"OFFSETX":0,"OFFSETY":0,"HEIGHT":65,"SYMBOL":1,"LEVEL_":1,"TEXT":"HIGHLANDS","NAME":"HIGHLANDS","FEATURE":"PPL-SUBDVSN","COUNTY":25017,"COORD":"421310N0723730W","DATE_":1978,"ELEVATION":170,"SOURCE":"USGS","TILE_NAME":"102"}},{"type":"Feature","id":"MGISGEONAMX2.185","geometry":{"type":"Point","coordinates":[-71.30487005,42.62758515]},"geometry_name":"the_geom","properties":{"PLACES_":10,"PLACES_ID":11,"X":216006.703,"Y":930797.375,"OFFSETX":0,"OFFSETY":0,"HEIGHT":65,"SYMBOL":1,"LEVEL_":1,"TEXT":"BLEACHERY","NAME":"BLEACHERY","FEATURE":"PPL-SUBDVSN","COUNTY":25017,"COORD":"423740N0711815W","DATE_":1978,"ELEVATION":113,"SOURCE":"USGS","TILE_NAME":"102"}},{"type":"Feature","id":"MGISGEONAMX2.186","geometry":{"type":"Point","coordinates":[-71.2643034,42.62685741]},"geometry_name":"the_geom","properties":{"PLACES_":12,"PLACES_ID":12,"X":219334.641,"Y":930724.938,"OFFSETX":0,"OFFSETY":0,"HEIGHT":65,"SYMBOL":1,"LEVEL_":1,"TEXT":"WAMESIT","NAME":"WAMESIT","FEATURE":"PPL","COUNTY":25017,"COORD":"423730N0711550W","DATE_":1978,"ELEVATION":137,"SOURCE":"DEP","TILE_NAME":"102"}},{"type":"Feature","id":"MGISGEONAMX2.187","geometry":{"type":"Point","coordinates":[-71.74367038,42.6756824]},"geometry_name":"the_geom","properties":{"PLACES_":5,"PLACES_ID":1,"X":180026.75,"Y":936150.5,"OFFSETX":0,"OFFSETY":0,"HEIGHT":65,"SYMBOL":1,"LEVEL_":1,"TEXT":"WEST TOWNSEND","NAME":"WEST TOWNSEND","FEATURE":"PPL","COUNTY":25017,"COORD":"424039N0714427W","DATE_":1978,"ELEVATION":331,"SOURCE":"USGS","TILE_NAME":"83"}},{"type":"Feature","id":"MGISGEONAMX2.188","geometry":{"type":"Point","coordinates":[-71.70202633,42.66629196]},"geometry_name":"the_geom","properties":{"PLACES_":4,"PLACES_ID":2,"X":183437.766,"Y":935098.438,"OFFSETX":0,"OFFSETY":0,"HEIGHT":100,"SYMBOL":1,"LEVEL_":1,"TEXT":"T O W N S E N D","NAME":"TOWNSEND","FEATURE":"PPL","COUNTY":25017,"COORD":"","DATE_":1978,"ELEVATION":315,"SOURCE":"USGS","TILE_NAME":"83"}},{"type":"Feature","id":"MGISGEONAMX2.189","geometry":{"type":"Point","coordinates":[-71.67038342,42.65344916]},"geometry_name":"the_geom","properties":{"PLACES_":3,"PLACES_ID":3,"X":186029.016,"Y":933666.125,"OFFSETX":0,"OFFSETY":0,"HEIGHT":60,"SYMBOL":1,"LEVEL_":1,"TEXT":"TOWNSEND HARBOR","NAME":"TOWNSEND HARBOR","FEATURE":"PPL","COUNTY":25017,"COORD":"423910N0714020W","DATE_":1978,"ELEVATION":271,"SOURCE":"USGS","TILE_NAME":"83"}},{"type":"Feature","id":"MGISGEONAMX2.190","geometry":{"type":"Point","coordinates":[-71.728503,42.63737682]},"geometry_name":"the_geom","properties":{"PLACES_":1,"PLACES_ID":4,"X":181258.594,"Y":931891.875,"OFFSETX":0,"OFFSETY":0,"HEIGHT":65,"SYMBOL":1,"LEVEL_":1,"TEXT":"OLD CITY","NAME":"OLD CITY","FEATURE":"PPL","COUNTY":25017,"COORD":"423815N0714348W","DATE_":1978,"ELEVATION":510,"SOURCE":"USGS","TILE_NAME":"83"}},{"type":"Feature","id":"MGISGEONAMX2.191","geometry":{"type":"Point","coordinates":[-71.70194549,42.63301638]},"geometry_name":"the_geom","properties":{"PLACES_":2,"PLACES_ID":5,"X":183435.641,"Y":931402,"OFFSETX":0,"OFFSETY":0,"HEIGHT":65,"SYMBOL":1,"LEVEL_":1,"TEXT":"SOUTH ROW","NAME":"SOUTH ROW","FEATURE":"PPL","COUNTY":25017,"COORD":"423800N0714213W","DATE_":1978,"ELEVATION":455,"SOURCE":"USGS","TILE_NAME":"83"}},{"type":"Feature","id":"MGISGEONAMX2.192","geometry":{"type":"Point","coordinates":[-71.40034562,42.6906888]},"geometry_name":"the_geom","properties":{"PLACES_":3,"PLACES_ID":1,"X":208166.563,"Y":937793.75,"OFFSETX":0,"OFFSETY":0,"HEIGHT":65,"SYMBOL":1,"LEVEL_":1,"TEXT":"NORRIS CORNER","NAME":"NORRIS CORNER","FEATURE":"PPL","COUNTY":25017,"COORD":"424124N0712406W","DATE_":1978,"ELEVATION":175,"SOURCE":"USGS","TILE_NAME":"95"}},{"type":"Feature","id":"MGISGEONAMX2.193","geometry":{"type":"Point","coordinates":[-71.42933205,42.67798808]},"geometry_name":"the_geom","properties":{"PLACES_":2,"PLACES_ID":2,"X":205792.328,"Y":936380.5,"OFFSETX":0,"OFFSETY":0,"HEIGHT":85,"SYMBOL":1,"LEVEL_":1,"TEXT":"TYNGSBORO","NAME":"TYNGSBORO","FEATURE":"PPL","COUNTY":25017,"COORD":"424036N0712530W","DATE_":1978,"ELEVATION":150,"SOURCE":"USGS","TILE_NAME":"95"}},{"type":"Feature","id":"MGISGEONAMX2.194","geometry":{"type":"Point","coordinates":[-71.48600456,42.67553273]},"geometry_name":"the_geom","properties":{"PLACES_":1,"PLACES_ID":3,"X":201147.188,"Y":936105.438,"OFFSETX":0,"OFFSETY":0,"HEIGHT":85,"SYMBOL":1,"LEVEL_":1,"TEXT":"DUNSTABLE","NAME":"DUNSTABLE","FEATURE":"PPL","COUNTY":25017,"COORD":"424030N0712900W","DATE_":1978,"ELEVATION":224,"SOURCE":"USGS","TILE_NAME":"95"}},{"type":"Feature","id":"MGISGEONAMX2.195","geometry":{"type":"Point","coordinates":[-71.38420196,42.67090536]},"geometry_name":"the_geom","properties":{"PLACES_":4,"PLACES_ID":4,"X":209492.5,"Y":935597.75,"OFFSETX":0,"OFFSETY":0,"HEIGHT":76.2,"SYMBOL":1,"LEVEL_":1,"TEXT":"WILLOWDALE","NAME":"WILLOWDALE","FEATURE":"PPL","COUNTY":25017,"COORD":"424019N0712305W","DATE_":1978,"ELEVATION":155,"SOURCE":"USGS","TILE_NAME":"95"}},{"type":"Feature","id":"MGISGEONAMX2.196","geometry":{"type":"Point","coordinates":[-71.43868989,42.65465733]},"geometry_name":"the_geom","properties":{"PLACES_":7,"PLACES_ID":5,"X":205027.172,"Y":933788.188,"OFFSETX":0,"OFFSETY":0,"HEIGHT":65,"SYMBOL":1,"LEVEL_":1,"TEXT":"FLINTS CORNER","NAME":"FLINTS CORNER","FEATURE":"PPL","COUNTY":25017,"COORD":"423918N0712600W","DATE_":1978,"ELEVATION":167,"SOURCE":"USGS","TILE_NAME":"95"}},{"type":"Feature","id":"MGISGEONAMX2.197","geometry":{"type":"Point","coordinates":[-71.43594105,42.65035904]},"geometry_name":"the_geom","properties":{"PLACES_":6,"PLACES_ID":6,"X":205252.922,"Y":933310.875,"OFFSETX":0,"OFFSETY":0,"HEIGHT":65,"SYMBOL":1,"LEVEL_":1,"TEXT":"SWAN CORNER","NAME":"SWAN CORNER","FEATURE":"PPL","COUNTY":25017,"COORD":"423906N0712610W","DATE_":1978,"ELEVATION":195,"SOURCE":"USGS","TILE_NAME":"95"}},{"type":"Feature","id":"MGISGEONAMX2.198","geometry":{"type":"Point","coordinates":[-71.47478216,42.64913513]},"geometry_name":"the_geom","properties":{"PLACES_":9,"PLACES_ID":7,"X":202067.938,"Y":933173.25,"OFFSETX":0,"OFFSETY":0,"HEIGHT":65,"SYMBOL":1,"LEVEL_":1,"TEXT":"FREDERICK CORNER","NAME":"FREDERICK CORNER","FEATURE":"PPL","COUNTY":25017,"COORD":"423854N0712830W","DATE_":1978,"ELEVATION":296,"SOURCE":"USGS","TILE_NAME":"95"}},{"type":"Feature","id":"MGISGEONAMX2.199","geometry":{"type":"Point","coordinates":[-71.45657846,42.6490127]},"geometry_name":"the_geom","properties":{"PLACES_":8,"PLACES_ID":8,"X":203560.703,"Y":933160.25,"OFFSETX":0,"OFFSETY":0,"HEIGHT":65,"SYMBOL":1,"LEVEL_":1,"TEXT":"HAYWARD CORNER","NAME":"HAYWARD CORNER","FEATURE":"PPL","COUNTY":25017,"COORD":"423854N0712708W","DATE_":1978,"ELEVATION":211,"SOURCE":"USGS","TILE_NAME":"95"}},{"type":"Feature","id":"MGISGEONAMX2.200","geometry":{"type":"Point","coordinates":[-71.49804511,42.64150632]},"geometry_name":"the_geom","properties":{"PLACES_":11,"PLACES_ID":9,"X":200160.328,"Y":932325.5,"OFFSETX":0,"OFFSETY":0,"HEIGHT":80,"SYMBOL":1,"LEVEL_":1,"TEXT":"EAST GROTON","NAME":"EAST GROTON","FEATURE":"PPL","COUNTY":25017,"COORD":"423830N0713000W","DATE_":1978,"ELEVATION":189,"SOURCE":"DEP","TILE_NAME":"95"}},{"type":"Feature","id":"MGISGEONAMX2.201","geometry":{"type":"Point","coordinates":[-71.38939422,42.63722805]},"geometry_name":"the_geom","properties":{"PLACES_":5,"PLACES_ID":10,"X":209071.719,"Y":931856.125,"OFFSETX":0,"OFFSETY":0,"HEIGHT":76.2,"SYMBOL":1,"LEVEL_":1,"TEXT":"NORTH CHELMSFORD","NAME":"NORTH CHELMSFORD","FEATURE":"PPL","COUNTY":25017,"COORD":"423820N0712300W","DATE_":1978,"ELEVATION":150,"SOURCE":"USGS","TILE_NAME":"95"}},{"type":"Feature","id":"MGISGEONAMX2.202","geometry":{"type":"Point","coordinates":[-71.42922602,42.62614224]},"geometry_name":"the_geom","properties":{"PLACES_":10,"PLACES_ID":11,"X":205805.797,"Y":930621.188,"OFFSETX":0,"OFFSETY":0,"HEIGHT":65,"SYMBOL":1,"LEVEL_":1,"TEXT":"WHIDDEN CORNER","NAME":"WHIDDEN CORNER","FEATURE":"PPL","COUNTY":25017,"COORD":"423735N0712515W","DATE_":1978,"ELEVATION":183,"SOURCE":"USGS","TILE_NAME":"95"}},{"type":"Feature","id":"MGISGEONAMX2.203","geometry":{"type":"Point","coordinates":[-71.59021405,42.69295774]},"geometry_name":"the_geom","properties":{"PLACES_":1,"PLACES_ID":1,"X":192607.328,"Y":938044.938,"OFFSETX":0,"OFFSETY":0,"HEIGHT":65,"SYMBOL":1,"LEVEL_":1,"TEXT":"NORTH PEPPERELL","NAME":"NORTH PEPPERELL","FEATURE":"PPL","COUNTY":25017,"COORD":"424135N0713530W","DATE_":1978,"ELEVATION":230,"SOURCE":"USGS","TILE_NAME":"89"}},{"type":"Feature","id":"MGISGEONAMX2.204","geometry":{"type":"Point","coordinates":[-71.59994112,42.67950245]},"geometry_name":"the_geom","properties":{"PLACES_":2,"PLACES_ID":2,"X":191808.484,"Y":936551.125,"OFFSETX":0,"OFFSETY":0,"HEIGHT":65,"SYMBOL":1,"LEVEL_":1,"TEXT":"HOVEY CORNER","NAME":"HOVEY CORNER","FEATURE":"PPL","COUNTY":25017,"COORD":"424046N0713605W","DATE_":1978,"ELEVATION":317,"SOURCE":"USGS","TILE_NAME":"89"}},{"type":"Feature","id":"MGISGEONAMX2.205","geometry":{"type":"Point","coordinates":[-71.57836159,42.67465632]},"geometry_name":"the_geom","properties":{"PLACES_":3,"PLACES_ID":3,"X":193576.719,"Y":936010.938,"OFFSETX":0,"OFFSETY":0,"HEIGHT":65,"SYMBOL":1,"LEVEL_":1,"TEXT":"FOUR CORNERS","NAME":"FOUR CORNERS","FEATURE":"PPL","COUNTY":25017,"COORD":"421109N0722055W","DATE_":1978,"ELEVATION":205,"SOURCE":"USGS","TILE_NAME":"89"}},{"type":"Feature","id":"MGISGEONAMX2.206","geometry":{"type":"Point","coordinates":[-71.58960282,42.66931445]},"geometry_name":"the_geom","properties":{"PLACES_":5,"PLACES_ID":4,"X":192654.656,"Y":935418.438,"OFFSETX":0,"OFFSETY":0,"HEIGHT":85,"SYMBOL":1,"LEVEL_":1,"TEXT":"P E P P E R E L L","NAME":"PEPPERELL","FEATURE":"PPL","COUNTY":25017,"COORD":"","DATE_":1978,"ELEVATION":244,"SOURCE":"USGS","TILE_NAME":"89"}},{"type":"Feature","id":"MGISGEONAMX2.207","geometry":{"type":"Point","coordinates":[-71.58104013,42.66705451]},"geometry_name":"the_geom","properties":{"PLACES_":4,"PLACES_ID":5,"X":193356.359,"Y":935166.688,"OFFSETX":0,"OFFSETY":0,"HEIGHT":65,"SYMBOL":1,"LEVEL_":1,"TEXT":"BABBATASSET VILLAGE","NAME":"BABBATASSET VILLAGE","FEATURE":"PPL","COUNTY":25017,"COORD":"424000N0713445W","DATE_":1999,"ELEVATION":30,"SOURCE":"USGS","TILE_NAME":"89"}},{"type":"Feature","id":"MGISGEONAMX2.208","geometry":{"type":"Point","coordinates":[-71.57699449,42.66374058]},"geometry_name":"the_geom","properties":{"PLACES_":6,"PLACES_ID":6,"X":193687.688,"Y":934798.25,"OFFSETX":0,"OFFSETY":0,"HEIGHT":76.2,"SYMBOL":1,"LEVEL_":1,"TEXT":"EAST PEPPERELL","NAME":"EAST PEPPERELL","FEATURE":"PPL","COUNTY":25017,"COORD":"423955N0713425W","DATE_":1978,"ELEVATION":210,"SOURCE":"USGS","TILE_NAME":"89"}},{"type":"Feature","id":"MGISGEONAMX2.209","geometry":{"type":"Point","coordinates":[-71.59278044,42.62564729]},"geometry_name":"the_geom","properties":{"PLACES_":7,"PLACES_ID":7,"X":192388.891,"Y":930567.938,"OFFSETX":0,"OFFSETY":0,"HEIGHT":76.2,"SYMBOL":1,"LEVEL_":1,"TEXT":"PAPER MILL VILLAGE","NAME":"PAPER MILL VILLAGE","FEATURE":"PPL","COUNTY":25017,"COORD":"423731N0713536W","DATE_":1978,"ELEVATION":213,"SOURCE":"USGS","TILE_NAME":"89"}},{"type":"Feature","id":"MGISGEONAMX2.210","geometry":{"type":"Point","coordinates":[-73.29478531,42.61110317]},"geometry_name":"the_geom","properties":{"PLACES_":1,"PLACES_ID":1,"X":52744.199,"Y":930497.5,"OFFSETX":0,"OFFSETY":0,"HEIGHT":65,"SYMBOL":1,"LEVEL_":1,"TEXT":"NORTH HANCOCK","NAME":"NORTH HANCOCK","FEATURE":"PPL","COUNTY":25003,"COORD":"423640N0731717W","DATE_":1978,"ELEVATION":1194,"SOURCE":"USGS","TILE_NAME":"6"}},{"type":"Feature","id":"MGISGEONAMX2.211","geometry":{"type":"Point","coordinates":[-73.313168,42.54338208]},"geometry_name":"the_geom","properties":{"PLACES_":2,"PLACES_ID":2,"X":51076.289,"Y":923008.438,"OFFSETX":0,"OFFSETY":0,"HEIGHT":90,"SYMBOL":1,"LEVEL_":1,"TEXT":"H A N C O C K","NAME":"HANCOCK","FEATURE":"PPL","COUNTY":25003,"COORD":"","DATE_":1978,"ELEVATION":1058,"SOURCE":"USGS","TILE_NAME":"6"}},{"type":"Feature","id":"MGISGEONAMX2.212","geometry":{"type":"Point","coordinates":[-73.13195441,42.6139269]},"geometry_name":"the_geom","properties":{"PLACES_":2,"PLACES_ID":1,"X":66108.188,"Y":930542.75,"OFFSETX":0,"OFFSETY":0,"HEIGHT":60,"SYMBOL":1,"LEVEL_":1,"TEXT":"MAPLE\\GROVE","NAME":"MAPLE GROVE","FEATURE":"PPL","COUNTY":25003,"COORD":"","DATE_":1978,"ELEVATION":840,"SOURCE":"USGS","TILE_NAME":"12"}},{"type":"Feature","id":"MGISGEONAMX2.213","geometry":{"type":"Point","coordinates":[-73.23544544,42.60406933]},"geometry_name":"the_geom","properties":{"PLACES_":1,"PLACES_ID":2,"X":57596.246,"Y":929615.563,"OFFSETX":0,"OFFSETY":0,"HEIGHT":85,"SYMBOL":1,"LEVEL_":1,"TEXT":"N E W      A S H F O R D","NAME":"NEW ASHFORD","FEATURE":"PPL","COUNTY":25003,"COORD":"","DATE_":1978,"ELEVATION":1256,"SOURCE":"USGS","TILE_NAME":"12"}},{"type":"Feature","id":"MGISGEONAMX2.214","geometry":{"type":"Point","coordinates":[-73.14080915,42.5934881]},"geometry_name":"the_geom","properties":{"PLACES_":3,"PLACES_ID":3,"X":65338.129,"Y":928286.688,"OFFSETX":0,"OFFSETY":0,"HEIGHT":60,"SYMBOL":1,"LEVEL_":1,"TEXT":"CHESHIRE HARBOR","NAME":"CHESHIRE HARBOR","FEATURE":"PPL","COUNTY":25003,"COORD":"423538N0730831W","DATE_":1978,"ELEVATION":920,"SOURCE":"USGS","TILE_NAME":"12"}},{"type":"Feature","id":"MGISGEONAMX2.215","geometry":{"type":"Point","coordinates":[-73.15707646,42.57696248]},"geometry_name":"the_geom","properties":{"PLACES_":4,"PLACES_ID":4,"X":63967.57,"Y":926477.125,"OFFSETX":0,"OFFSETY":0,"HEIGHT":60,"SYMBOL":1,"LEVEL_":1,"TEXT":"TOWN CREST\\VILLAGE","NAME":"TOWN CREST VILLAGE","FEATURE":"PPL","COUNTY":25003,"COORD":"","DATE_":1978,"ELEVATION":1020,"SOURCE":"USGS","TILE_NAME":"12"}},{"type":"Feature","id":"MGISGEONAMX2.216","geometry":{"type":"Point","coordinates":[-73.16427462,42.56297357]},"geometry_name":"the_geom","properties":{"PLACES_":5,"PLACES_ID":5,"X":63346.418,"Y":924935,"OFFSETX":0,"OFFSETY":0,"HEIGHT":85,"SYMBOL":1,"LEVEL_":1,"TEXT":"C H E S H I R E","NAME":"CHESHIRE","FEATURE":"PPL","COUNTY":25003,"COORD":"","DATE_":1978,"ELEVATION":963,"SOURCE":"USGS","TILE_NAME":"12"}},{"type":"Feature","id":"MGISGEONAMX2.217","geometry":{"type":"Point","coordinates":[-73.19308464,42.54009305]},"geometry_name":"the_geom","properties":{"PLACES_":6,"PLACES_ID":6,"X":60930.688,"Y":922440.438,"OFFSETX":0,"OFFSETY":0,"HEIGHT":65,"SYMBOL":1,"LEVEL_":1,"TEXT":"FARNAMS","NAME":"FARNAMS","FEATURE":"PPL","COUNTY":25003,"COORD":"423230N0731110W","DATE_":1968,"ELEVATION":1052,"SOURCE":"USGS","TILE_NAME":"12"}},{"type":"Feature","id":"MGISGEONAMX2.218","geometry":{"type":"Point","coordinates":[-73.20329741,42.53333696]},"geometry_name":"the_geom","properties":{"PLACES_":7,"PLACES_ID":7,"X":60076.941,"Y":921706.813,"OFFSETX":0,"OFFSETY":0,"HEIGHT":55,"SYMBOL":1,"LEVEL_":1,"TEXT":"CAMP\\MOHAWK","NAME":"CAMP MOHAWK","FEATURE":"PPL","COUNTY":25003,"COORD":"","DATE_":1999,"ELEVATION":1030,"SOURCE":"USGS","TILE_NAME":"12"}},{"type":"Feature","id":"MGISGEONAMX2.219","geometry":{"type":"Point","coordinates":[-73.2224122,42.51611716]},"geometry_name":"the_geom","properties":{"PLACES_":9,"PLACES_ID":8,"X":58468.281,"Y":919825.938,"OFFSETX":0,"OFFSETY":0,"HEIGHT":85,"SYMBOL":1,"LEVEL_":1,"TEXT":"L A N E S B O R O U G H","NAME":"LANESBOROUGH","FEATURE":"PPL","COUNTY":25003,"COORD":"","DATE_":1978,"ELEVATION":1130,"SOURCE":"USGS","TILE_NAME":"12"}},{"type":"Feature","id":"MGISGEONAMX2.220","geometry":{"type":"Point","coordinates":[-73.19224537,42.51133137]},"geometry_name":"the_geom","properties":{"PLACES_":8,"PLACES_ID":9,"X":60936.234,"Y":919244.813,"OFFSETX":0,"OFFSETY":0,"HEIGHT":65,"SYMBOL":1,"LEVEL_":1,"TEXT":"BERKSHIRE","NAME":"BERKSHIRE","FEATURE":"PPL","COUNTY":25003,"COORD":"423045N0731136W","DATE_":1978,"ELEVATION":965,"SOURCE":"USGS","TILE_NAME":"12"}},{"type":"Feature","id":"MGISGEONAMX2.221","geometry":{"type":"Point","coordinates":[-73.11947291,42.62387962]},"geometry_name":"the_geom","properties":{"PLACES_":1,"PLACES_ID":1,"X":67153.086,"Y":931628.625,"OFFSETX":0,"OFFSETY":0,"HEIGHT":76.2,"SYMBOL":1,"LEVEL_":1,"TEXT":"ADAMS","NAME":"ADAMS","FEATURE":"PPL","COUNTY":25003,"COORD":"423727N0730705W","DATE_":1978,"ELEVATION":799,"SOURCE":"USGS","TILE_NAME":"18"}},{"type":"Feature","id":"MGISGEONAMX2.222","geometry":{"type":"Point","coordinates":[-73.10219663,42.61551919]},"geometry_name":"the_geom","properties":{"PLACES_":3,"PLACES_ID":2,"X":68552.664,"Y":930673.313,"OFFSETX":0,"OFFSETY":0,"HEIGHT":60,"SYMBOL":1,"LEVEL_":1,"TEXT":"BOWENS\\CORNERS","NAME":"BOWENS CORNERS","FEATURE":"PPL","COUNTY":25003,"COORD":"","DATE_":1999,"ELEVATION":1150,"SOURCE":"USGS","TILE_NAME":"18"}},{"type":"Feature","id":"MGISGEONAMX2.223","geometry":{"type":"Point","coordinates":[-73.04213935,42.60687687]},"geometry_name":"the_geom","properties":{"PLACES_":4,"PLACES_ID":3,"X":73461.977,"Y":929622.625,"OFFSETX":0,"OFFSETY":0,"HEIGHT":65,"SYMBOL":1,"LEVEL_":1,"TEXT":"SAVOY CENTER","NAME":"SAVOY CENTER","FEATURE":"PPL","COUNTY":25003,"COORD":"423625N0730235W","DATE_":1978,"ELEVATION":2087,"SOURCE":"USGS","TILE_NAME":"18"}},{"type":"Feature","id":"MGISGEONAMX2.224","geometry":{"type":"Point","coordinates":[-73.08620123,42.60518258]},"geometry_name":"the_geom","properties":{"PLACES_":2,"PLACES_ID":4,"X":69843.453,"Y":929500.75,"OFFSETX":0,"OFFSETY":0,"HEIGHT":60,"SYMBOL":1,"LEVEL_":1,"TEXT":"LITTLE EGYPT","NAME":"LITTLE EGYPT","FEATURE":"PPL","COUNTY":25003,"COORD":"423620N0730453W","DATE_":1999,"ELEVATION":1600,"SOURCE":"USGS","TILE_NAME":"18"}},{"type":"Feature","id":"MGISGEONAMX2.225","geometry":{"type":"Point","coordinates":[-73.0257179,42.56638594]},"geometry_name":"the_geom","properties":{"PLACES_":5,"PLACES_ID":5,"X":74728.82,"Y":925101.25,"OFFSETX":0,"OFFSETY":0,"HEIGHT":90,"SYMBOL":1,"LEVEL_":1,"TEXT":"S A V O Y","NAME":"SAVOY","FEATURE":"PPL","COUNTY":25003,"COORD":"","DATE_":1978,"ELEVATION":1720,"SOURCE":"USGS","TILE_NAME":"18"}},{"type":"Feature","id":"MGISGEONAMX2.226","geometry":{"type":"Point","coordinates":[-73.06683043,42.51308339]},"geometry_name":"the_geom","properties":{"PLACES_":6,"PLACES_ID":6,"X":71244.836,"Y":919242.5,"OFFSETX":0,"OFFSETY":0,"HEIGHT":90,"SYMBOL":1,"LEVEL_":1,"TEXT":"W I N D S O R","NAME":"WINDSOR","FEATURE":"PPL","COUNTY":25003,"COORD":"","DATE_":1897,"ELEVATION":2031,"SOURCE":"USGS","TILE_NAME":"18"}},{"type":"Feature","id":"MGISGEONAMX2.227","geometry":{"type":"Point","coordinates":[-72.99542829,42.58916674]},"geometry_name":"the_geom","properties":{"PLACES_":1,"PLACES_ID":1,"X":77259.898,"Y":927587.375,"OFFSETX":0,"OFFSETY":0,"HEIGHT":76.2,"SYMBOL":1,"LEVEL_":1,"TEXT":"BRIER","NAME":"BRIER","FEATURE":"PPL","COUNTY":25003,"COORD":"423522N0725940W","DATE_":1978,"ELEVATION":1709,"SOURCE":"USGS","TILE_NAME":"24"}},{"type":"Feature","id":"MGISGEONAMX2.228","geometry":{"type":"Point","coordinates":[-72.95358658,42.56441973]},"geometry_name":"the_geom","properties":{"PLACES_":4,"PLACES_ID":2,"X":80646.953,"Y":924779.438,"OFFSETX":0,"OFFSETY":0,"HEIGHT":76.2,"SYMBOL":1,"LEVEL_":1,"TEXT":"KING CORNER","NAME":"KING CORNER","FEATURE":"PPL","COUNTY":25011,"COORD":"423353N0725702W","DATE_":1978,"ELEVATION":1337,"SOURCE":"USGS","TILE_NAME":"24"}},{"type":"Feature","id":"MGISGEONAMX2.229","geometry":{"type":"Point","coordinates":[-72.8799837,42.5641604]},"geometry_name":"the_geom","properties":{"PLACES_":3,"PLACES_ID":3,"X":86689.43,"Y":924650.25,"OFFSETX":0,"OFFSETY":0,"HEIGHT":76.2,"SYMBOL":1,"LEVEL_":1,"TEXT":"HAWLEY","NAME":"HAWLEY","FEATURE":"PPL","COUNTY":25011,"COORD":"423352N0725242W","DATE_":1978,"ELEVATION":1752,"SOURCE":"USGS","TILE_NAME":"24"}},{"type":"Feature","id":"MGISGEONAMX2.230","geometry":{"type":"Point","coordinates":[-72.94558304,42.55219377]},"geometry_name":"the_geom","properties":{"PLACES_":2,"PLACES_ID":4,"X":81281.039,"Y":923410.375,"OFFSETX":0,"OFFSETY":0,"HEIGHT":76.2,"SYMBOL":1,"LEVEL_":1,"TEXT":"HALLOCKVILLE","NAME":"HALLOCKVILLE","FEATURE":"PPL","COUNTY":25011,"COORD":"423309N0725632W","DATE_":1978,"ELEVATION":1620,"SOURCE":"USGS","TILE_NAME":"24"}},{"type":"Feature","id":"MGISGEONAMX2.231","geometry":{"type":"Point","coordinates":[-72.90846669,42.54608255]},"geometry_name":"the_geom","properties":{"PLACES_":6,"PLACES_ID":5,"X":84317.742,"Y":922680.625,"OFFSETX":0,"OFFSETY":0,"HEIGHT":76.2,"SYMBOL":1,"LEVEL_":1,"TEXT":"SOUTH HAWLEY","NAME":"SOUTH HAWLEY","FEATURE":"PPL","COUNTY":25011,"COORD":"423247N0725418W","DATE_":1978,"ELEVATION":1741,"SOURCE":"USGS","TILE_NAME":"24"}},{"type":"Feature","id":"MGISGEONAMX2.232","geometry":{"type":"Point","coordinates":[-72.95027654,42.52719805]},"geometry_name":"the_geom","properties":{"PLACES_":7,"PLACES_ID":6,"X":80848.414,"Y":920640.75,"OFFSETX":0,"OFFSETY":0,"HEIGHT":76.2,"SYMBOL":1,"LEVEL_":1,"TEXT":"WEST HAWLEY","NAME":"WEST HAWLEY","FEATURE":"PPL","COUNTY":25011,"COORD":"423139N0725650W","DATE_":1978,"ELEVATION":1080,"SOURCE":"USGS","TILE_NAME":"24"}},{"type":"Feature","id":"MGISGEONAMX2.233","geometry":{"type":"Point","coordinates":[-72.91911427,42.51498402]},"geometry_name":"the_geom","properties":{"PLACES_":5,"PLACES_ID":7,"X":83385.828,"Y":919241.125,"OFFSETX":0,"OFFSETY":0,"HEIGHT":76.2,"SYMBOL":1,"LEVEL_":1,"TEXT":"PLAINFIELD","NAME":"PLAINFIELD","FEATURE":"PPL","COUNTY":25015,"COORD":"411630N0695900W","DATE_":1978,"ELEVATION":1720,"SOURCE":"USGS","TILE_NAME":"24"}},{"type":"Feature","id":"MGISGEONAMX2.234","geometry":{"type":"Point","coordinates":[-72.79465889,42.62190883]},"geometry_name":"the_geom","properties":{"PLACES_":1,"PLACES_ID":1,"X":93792.266,"Y":930954.563,"OFFSETX":0,"OFFSETY":0,"HEIGHT":76.2,"SYMBOL":1,"LEVEL_":1,"TEXT":"EAST CHARLEMONT","NAME":"EAST CHARLEMONT","FEATURE":"PPL","COUNTY":25011,"COORD":"423720N0724725W","DATE_":1978,"ELEVATION":500,"SOURCE":"USGS","TILE_NAME":"30"}},{"type":"Feature","id":"MGISGEONAMX2.235","geometry":{"type":"Point","coordinates":[-72.84215039,42.60031074]},